name,star,comment,class,address,latitude,longitude,bus_count,department_store_count,drink_count,hospital_count,movie_theater_count,MRT_count,night_market_count,park_count,school_count,sports_facilities_count,train_count
果滋味綜合飲料店,4.9,17,冰品飲料店,新北市三峽區大德路39號1樓,24.9429943,121.3770984,80,5,41,0,0,0,0,9,6,2,0
可不可熟成紅茶-三峽北大店,3.9,191,冰品飲料店,新北市三峽區學成路229號,24.9425087,121.374965,81,6,48,0,0,0,0,9,5,3,0
茶聚CHAGE三峽和平店｜香片領導品牌＿新北手搖飲料店外帶外送加盟推薦│在地美食飲料茶飲創業加盟,4.7,354,冰品飲料店,新北市三峽區和平街107號,24.9382843,121.3703329,85,5,67,1,0,0,0,11,6,6,0
50嵐 三峽北大店,4.3,101,冰品飲料店,新北市三峽區大學路129號1樓,24.9436023,121.3745389,79,5,42,0,0,0,0,9,5,3,0
五桐號WooTEA 三峽北大店,3.7,62,冰品飲料店,新北市三峽區國學街39號,24.942509,121.3726773,75,5,54,0,0,0,0,8,6,5,0
CoCo都可 三峽北大店,4.1,192,冰品飲料店,新北市三峽區大學路143號,24.9437545,121.3741646,80,5,42,0,0,0,0,9,5,3,0
紅茶洋行-三峽復興店,4.5,28,冰品飲料店,新北市三峽區復興路36-8號,24.9367654,121.373994,96,6,74,2,0,0,0,14,7,2,0
珍煮丹 三峽北大店,3.9,221,冰品飲料店,新北市三峽區大學路145號,24.9439864,121.3741868,77,5,42,0,0,0,0,9,5,3,0
CoCo都可 三峽和平店,4.0,232,冰品飲料店,新北市三峽區和平街40號,24.9373577,121.37032,83,5,66,1,0,0,0,11,6,6,0
老賴茶棧三峽老街店,4.3,95,冰品飲料店,新北市三峽區民權街5號,24.9345784,121.3704512,96,7,70,2,0,0,0,12,7,4,0
無飲國學店,4.2,41,冰品飲料店,新北市三峽區國學街28號,24.9421522,121.3731927,75,5,58,0,0,0,0,8,6,5,0
清心福全三峽大學店（來電外送26731238免外送費）,4.8,144,冰品飲料店,新北市三峽區國際一街36號,24.9426896,121.3734502,75,6,51,0,0,0,0,9,6,5,0
來壺果飲,4.6,87,冰品飲料店,新北市三峽區大德路153號,24.9451932,121.37561,69,5,32,0,0,0,0,9,6,2,0
清心福全三峽文化店-珍珠奶茶手搖飲料專賣店,3.6,58,冰品飲料店,新北市三峽區文化路16號,24.9358682,121.3733162,98,8,73,2,0,0,0,14,7,3,0
泡泡龍,3.9,102,冰品飲料店,新北市三峽區民生街171號,24.934743,121.3723595,99,7,70,2,0,0,0,13,8,4,0
胖茶 茶飲專賣店 /三峽飲料推薦/三峽特色飲料/三峽必喝/鮮萃黑茶/黑奶茶/仙草凍拿鐵,4.4,43,冰品飲料店,新北市三峽區光明路94號,24.928534,121.3756757,79,5,45,2,0,0,0,9,4,0,0
鮮茶道(三峽文化店),3.6,141,冰品飲料店,新北市三峽區文化路41號,24.9360559,121.3724651,99,7,72,2,0,0,0,13,7,4,0
拾?茶屋 三峽中華店,4.9,239,冰品飲料店,新北市三峽區中華路37號,24.9311286,121.3728445,98,6,59,2,0,0,0,13,7,2,0
清水冬瓜王 三峽店,4.4,567,冰品飲料店,新北市三峽區長福街15號,24.9338713,121.3705682,101,6,64,2,0,0,0,13,7,4,0
有料搖搖茶yoyocha-新北三峽店,4.4,27,珍珠奶茶,新北市三峽區大同路45號1樓,24.9277724,121.3760445,71,5,42,2,0,0,0,9,4,0,0
奶霸Milk Bar-鍋煮奶茶創始店 三峽飲料 三峽飲料推薦 三峽手搖飲 三峽咖啡 三峽下午茶,5.0,24,冰品飲料店,新北市三峽區光明路96號,24.9282042,121.3757325,78,5,44,2,0,0,0,9,4,0,0
咕茶,4.9,121,冰品飲料店,新北市三峽區光明路100之1號,24.9281741,121.3760056,78,5,44,2,0,0,0,9,4,0,0
清心福全三峽大義店,3.5,107,珍珠奶茶,新北市三峽區大義路11號,24.9437014,121.3788895,70,5,28,0,0,0,0,9,5,2,0
太元茶室 Est.2021,4.7,119,冰品飲料店,新北市三峽區國學街8號,24.9415506,121.3736498,84,6,64,0,0,0,0,9,6,6,0
三峽冰鎮,4.0,218,冰品飲料店,新北市三峽區民生街108號,24.93532,121.373318,100,7,73,2,0,0,0,13,7,2,0
統一茗茶-顏選製茶所(YANXUAN)|碧螺春綠茶|蜜香紅茶|白茶冠軍|東方美人|烏龍茶|金萱|四季春|老茶|茶糖|牛軋糖|雪花餅|茶酥|茶梅|苦茶油|三峽伴手禮|茶葉禮盒|批發零售|,4.9,43,茶葉店,新北市三峽區竹崙路23號,24.922695,121.4292553,27,1,7,0,0,0,0,1,0,0,0
Mai cha嘜ㄔㄚ、飲品專賣店,5.0,159,冰品飲料店,新北市三峽區介壽路一段6號黃昏市場鍾予原味旁,24.9334478,121.3745244,101,6,65,2,0,0,0,14,8,2,0
好了啦紅茶冰-三峽大同,3.0,1,冰品飲料店,新北市三峽區大同路69號,24.9272751,121.375194,74,5,41,2,0,0,0,9,4,0,0
50嵐 三峽光明店,4.8,116,冰品飲料店,新北市三峽區光明路100-3號,24.9281327,121.3760502,78,5,44,2,0,0,0,9,4,0,0
COMEBUY_三峽光明店,4.2,52,冰品飲料店,新北市三峽區光明路17號,24.9313579,121.37325,96,6,59,2,0,0,0,13,7,2,0
自己來 紅茶鮮乳 三峽愛國店,3.6,19,冰品飲料店,新北市三峽區愛國路32-10號,24.932998,121.3748773,99,6,58,2,0,0,0,13,8,2,0
樹林青草茶,4.7,12,冰品飲料店,新北市三峽區民族街,24.9316832,121.3686455,95,5,59,2,0,0,0,10,6,3,0
森木坊古早冰,4.7,169,冰品飲料店,新北市三峽區秀川街88號,24.9334467,121.370201,98,6,61,2,0,0,0,13,7,4,0
得正#三峽文化計劃,5.0,7,冰品飲料店,新北市三峽區文化路60號,24.9362408,121.3724963,98,7,71,2,0,0,0,13,7,4,0
市民小站三峽愛國店,4.3,41,冰品飲料店,新北市三峽區愛國路32-8號,24.9330274,121.3745909,99,6,58,2,0,0,0,13,8,2,0
可不可熟成紅茶-三峽文化店,4.0,39,冰品飲料店,新北市三峽區文化路5號,24.9355342,121.3732848,100,7,73,2,0,0,0,14,8,2,0
涼水庫愛國店,5.0,1,冰品飲料店,新北市三峽區愛國路2號,24.933996,121.3741324,102,7,69,2,0,0,0,14,8,2,0
好了啦-三峽愛國店,5.0,1,冰品飲料店,新北市三峽區愛國路24號對面號,24.9333949,121.3742639,102,6,64,2,0,0,0,14,8,2,0
50嵐 三峽文化店,3.9,491,冰品飲料店,新北市三峽區文化路26號,24.9360019,121.3732319,97,8,73,2,0,0,0,14,7,4,0
愛茶咖 i - Cha Ca Coffee & Tea,4.9,7,冰品飲料店,新北市三峽區民權街117號,24.932275,121.369141,97,5,59,2,0,0,0,12,7,4,0
龜記茗品-三峽文化店,4.5,146,冰品飲料店,新北市三峽區文化路7號,24.9354679,121.373238,100,7,73,2,0,0,0,13,8,2,0
好了啦-紅茶冰,4.0,5,冰品飲料店,新北市三峽區正義街61號號,24.918473,121.3692115,49,0,3,0,0,0,0,1,2,0,0
好了啦！三峽和平店,3.0,2,冰品飲料店,新北市三峽區和平街60號,24.9378497,121.3704018,85,5,68,1,0,0,0,11,6,6,0
三峽青草茶,0.0,0,冰品飲料店,新北市三峽區民生街178號門口附近,24.935002,121.37129,98,7,70,2,0,0,0,12,8,4,0
上宇林三峽和平店,4.5,82,冰品飲料店,新北市三峽區和平街24之3號,24.9362858,121.3703514,88,5,65,1,0,0,0,12,7,4,0
陳Q古早黑砂糖剉冰 三峽光明店,3.9,61,冰品飲料店,"No. 29-1號, 光明路三峽區新北市237",24.9310724,121.3734778,94,6,58,2,0,0,0,13,7,2,0
現帶茶,4.7,10,冰品飲料店,新北市三峽區和平街73號,24.9371852,121.3701056,82,5,66,1,0,0,0,10,6,5,0
大苑子,3.5,221,冰品飲料店,新北市三峽區和平街101號,24.9381192,121.3702556,85,5,68,1,0,0,0,11,6,6,0
一枝冰商行,4.7,7,冰品飲料店,新北市三峽區嘉添路181-24號號1樓,24.9108246,121.3710066,45,0,2,0,0,0,0,0,3,0,0
吉品仙草小棧,4.5,127,冰品飲料店,新北市三峽區中山路129號,24.9360427,121.3652347,61,2,49,1,0,0,0,7,5,4,0
好了啦三峽國光店,0.0,0,冰品飲料店,新北市三峽區國光街34號,24.9376488,121.3750729,93,6,67,2,0,0,0,13,7,2,0
三峽 古早味黑砂糖剉冰,3.1,7,冰品飲料店,新北市三峽區中山路4號1樓,24.9344364,121.3698974,96,7,66,2,0,0,0,12,6,4,0
期香茶棧三峽店,4.0,25,無酒精飲料店,新北市三峽區民生街193號,24.9347746,121.3718143,98,7,70,3,0,0,0,13,8,4,0
7吋Qi Inch 甜品屋/冰棒/芝麻糊 三峽本店,4.7,14,冰品飲料店,新北市三峽區中華路74-1號,24.9293109,121.3714508,90,5,57,2,0,0,0,11,5,2,0
迷客夏Milksha 新北三峽北大店,3.6,321,冰品飲料店,新北市三峽區國際二街33號1樓,24.9432073,121.3726224,73,5,49,0,0,0,0,8,6,5,0
雙予綿綿冰（原峽客冰品),4.3,15,冰品飲料店,新北市三峽區中山路141號,24.9361434,121.365088,60,1,48,1,0,0,0,6,5,4,0
芋見豆花,4.7,132,冰品飲料店,新北市三峽區文化路246號,24.9359211,121.367499,75,3,60,1,0,0,0,9,6,4,0
呷冰站(台灣鮮果手工冰),4.4,216,冰品飲料店,新北市三峽區國際一街82號1 樓,24.9415729,121.3712196,83,4,61,1,0,0,0,9,6,6,0
Bella甜品專賣北大店,4.6,47,冰品飲料店,新北市三峽區國際一街27號,24.9424157,121.3737864,78,6,53,0,0,0,0,9,6,5,0
安安冰?室,4.9,40,冰品飲料店,新北市三峽區文化路193號,24.935601,121.3667312,70,2,56,1,0,0,0,9,5,4,0
三峽老街冰店,4.4,91,冰品飲料店,新北市三峽區民權街10號,24.9346258,121.3702061,96,7,70,2,0,0,0,12,7,4,0
ㄚ冰師古早香紅茶冰,3.7,25,飲品分銷商,新北市三峽區大勇路80號,24.9360841,121.3670906,72,3,60,1,0,0,0,9,6,4,0
唐香蘭涼麵｜真果粉圓｜蔬食手捲,4.8,58,冰品飲料店,新北市三峽區大同路56號,24.9286129,121.376951,69,5,44,2,0,0,0,8,3,0,0
茗食茶,4.4,23,冰品飲料店,新北市三峽區大觀路313號,24.9475348,121.3730902,51,4,24,0,0,0,0,8,4,2,0
伊希詩ISIS冷飲,4.4,13,冰品飲料店,新北市三峽區大學路109-1號,24.9420845,121.3756495,84,6,50,0,0,0,0,9,5,3,0
古道阿彬杏仁茶,3.5,113,飲料,新北市三峽區民權街40號,24.9336735,121.369658,96,5,61,2,0,0,0,12,7,4,0
魔法香腸 Magic Sausage,5.0,916,冰品飲料店,新北市三峽區民權街97號,24.9326914,121.3692766,98,5,59,2,0,0,0,12,7,4,0
金聯春老房子,4.0,1,冰品飲料店,新北市三峽區民權街5 3號,24.9334179,121.369771,95,5,61,2,0,0,0,12,7,4,0
YCHY拾味(三峽義大利麵、三峽咖啡廳、三峽午餐、三峽晚餐、三峽下午茶、三峽人氣餐廳、三峽平價美食）,4.5,736,冰品飲料店,新北市三峽區國際一街27-1號1樓,24.9424002,121.3737362,77,6,55,0,0,0,0,9,6,5,0
禾乃川國產豆製所,4.4,1,冰品飲料店,新北市民權街84巷12-1號*最後點餐時間17:30,24.9337739,121.3689688,90,5,61,2,0,0,0,12,6,4,0
啡茶小棧,0.0,0,冰品飲料店,新北市三峽區白雞路153-1號白雞商圈,24.9049821,121.4008095,8,0,2,0,0,0,0,0,0,0,0
蟾蜍山谷冷飲店,5.0,52,冰品飲料店,新北市三峽區,24.8564912,121.4357632,16,0,2,0,0,0,0,0,1,0,0
嚐冰閣,0.0,0,冰品飲料店,新北市三峽區介壽路三段146號,24.9432035,121.4012029,24,0,1,0,0,0,0,3,0,0,0
我家苦茶 草本養生茶舖,4.9,17,冰品飲料店,新北市三峽區白雞路1號153 之 號,24.9048573,121.4005201,9,0,2,0,0,0,0,0,0,0,0
穩贏生技股份有限公司(北區營業處),0.0,0,飲品分銷商,新北市三峽區添福路151之7號,24.8989055,121.3753074,19,0,1,0,0,0,0,0,0,0,0
日月閒境,4.7,12,冰品飲料店,桃園市大溪區信義路956號,24.8949062,121.3195782,0,0,1,0,0,0,0,0,0,0,0
葵可利—飲料店(早餐廣東粥),4.4,13,冰品飲料店,桃園市大溪區民權東路78號,24.8822025,121.2914058,0,0,1,0,0,0,0,0,0,0,0
隱茶於市,4.5,19,冰品飲料店,新北市鶯歌區國中街120號,24.9401638,121.3395606,24,0,6,0,0,0,0,5,3,1,0
茶聚CHAGE三峽和平店｜香片領導品牌＿新北手搖飲料店外帶外送加盟推薦│在地美食飲料茶飲創業加盟,4.7,354,珍珠奶茶,新北市三峽區和平街107號,24.9382843,121.3703329,85,5,67,1,0,0,0,11,6,6,0
TEA'S 原味-八德介壽店,3.4,108,冰品飲料店,桃園市八德區介壽路一段770號,24.9633852,121.3000639,0,0,2,0,0,0,0,0,0,0,0
三峽冰鎮-北大店,4.0,264,冰品飲料店,新北市三峽區大德路485號,24.947807,121.37419,51,4,25,0,0,0,0,8,5,2,0
CoCo都可 三峽大雅店,4.3,219,冰品飲料店,新北市樹林區大雅路280號,24.9472177,121.3798771,63,5,25,0,0,0,0,6,5,0,0
Tea's 原味（鶯歌南雅店）,3.2,56,冰品飲料店,新北市鶯歌區南雅路35號,24.954198,121.3490025,75,1,42,0,0,0,1,9,3,3,1
易家紅茶冰,3.6,8,冰品飲料店,新北市三峽區中園街26號,24.9268903,121.3681208,69,5,38,0,0,0,0,10,4,1,0
火金姑茶,4.4,43,茶葉店,新北市三峽區安坑里11鄰 51-6號,24.9315231,121.463942,10,0,1,0,0,0,0,0,0,0,0
涎露茗茶,0.0,0,茶葉店,新北市三峽區,24.9177366,121.4628214,2,0,1,0,0,0,0,0,0,0,0
甘霖冰室,0.0,0,冰品飲料店,新北市三峽區成福路261號,24.9235991,121.427911,26,1,7,0,0,0,0,1,0,0,0
三峽日盛製茶 七代傳承,4.5,39,茶葉店,新北市三峽區成福路308-1號,24.9234616,121.4289819,27,1,7,0,0,0,0,1,0,0,0
老家Black Tea (Old Place),4.7,46,無酒精飲料店,新北市三峽區中山路37號,24.9344206,121.3682438,88,3,56,1,0,0,0,11,6,4,0
好了啦-三峽祖師廟店,3.0,4,果汁,新北市三峽區長福街2號正對面,24.933576,121.370231,98,6,62,2,0,0,0,13,7,4,0
雲萃茶作,3.9,30,茶葉店,新北市三峽區民權街69號,24.9329941,121.369691,98,5,60,2,0,0,0,13,7,4,0
有福製茶廠/新北製茶廠/新北茶葉/新北茶葉批發/新北茶農,4.6,43,茶葉店,新北市三峽區竹崙路87-1號,24.9188232,121.4324518,25,1,7,0,0,0,0,1,0,0,0
山泉水 清茶館,3.0,1,無酒精飲料店,新北市三峽區清水街334號,24.9338546,121.3712325,98,6,65,2,0,0,0,13,7,4,0
幸福搖搖-西門1號店,4.4,323,冰品飲料店,台北市萬華區成都路54號1樓,25.042642,121.5060244,75,31,144,1,6,3,1,15,8,4,0
蟾蜍山谷烤肉區,4.0,561,冰品飲料店,新北市三峽區130之1號,24.8566359,121.4355647,16,0,2,0,0,0,0,0,1,0,0
愛沐芋芋頭芋圓仙草凍專賣店-三峽特色冰店|必吃芋圓|人氣飲料|熱門飲料|推薦手搖|仙草凍推薦,3.9,29,無酒精飲料店,新北市三峽區和平街103號,24.938113,121.370173,84,5,68,1,0,0,0,11,6,6,0
茶裡不然-大坪林店,4.6,64,冰品飲料店,新北市新店區北新路三段159號,24.9837749,121.5410231,69,9,74,2,2,2,1,11,6,7,0
里木Limonetea 手作茶飲,5.0,138,冰品飲料店,桃園市大溪區埔頂路一段300之2號,24.9014712,121.2741911,0,0,1,0,0,0,0,0,0,0,0
五寮尖山休息站,4.5,132,冰品飲料店,新北市三峽區圳頭82號,24.87914,121.370536,10,0,1,0,0,0,0,0,0,0,0
日日杯茶飲,4.9,168,冰品飲料店,新北市中和區景平路574號,24.9955362,121.5016896,101,1,83,3,0,2,0,11,3,5,0
李記紅茶冰 文山木新店,4.2,30,冰品飲料店,台北市文山區木新路三段181號,24.981511,121.5603632,57,0,28,0,0,0,0,16,12,2,0
兔子茶飲,4.3,13,冰品飲料店,新北市中和區景平路73號,24.9916396,121.5182343,84,1,94,0,0,3,1,14,4,3,0
蒔三SHI SAN TEA - 新北中和店,4.7,45,冰品飲料店,新北市中和區圓通路162之5號,24.9951589,121.4974281,101,1,77,2,0,2,0,12,3,11,0
吳家紅茶冰台北木新店,4.3,48,冰品飲料店,台北市文山區木新路三段306號,24.9809322,121.5573103,55,0,25,0,0,0,0,12,8,2,0
谷雨茶水舖,4.8,86,冰品飲料店,新北市中和區建一路103號,25.0015424,121.488223,89,4,78,1,0,2,0,11,2,13,0
馬祖奶茶（文山木新店）,4.5,48,冰品飲料店,台北市文山區木新路三段33號,24.9824552,121.5645275,48,0,30,0,0,0,0,16,7,6,0
茶聚CHAGE文山木新店,4.3,58,冰品飲料店,台北市文山區木新路二段262號,24.9831829,121.5660561,50,0,33,0,0,0,0,14,5,5,0
五桐號WooTea 新北南勢角店,4.0,319,冰品飲料店,新北市中和區興南路一段94號,24.9891449,121.509785,91,1,110,0,0,3,1,12,7,0,0
COMEBUY_中和大勇店,3.6,184,冰品飲料店,新北市中和區大勇街27巷2號,24.9936789,121.5172163,92,1,112,0,0,3,1,18,4,4,0
大苑子台北木新店,4.1,248,冰品飲料店,台北市文山區木新路三段141號,24.9817883,121.5616159,58,0,29,0,0,0,0,17,12,3,0
木昂手作-樹林鎮前店,4.9,37,冰品飲料店,新北市樹林區鎮前街146號,24.9903955,121.4245155,103,14,87,0,1,0,1,17,5,3,1
予無憂飲品工作室 中和立人店,4.7,118,冰品飲料店,新北市中和區立人街21號,24.993971,121.521274,80,1,59,0,0,2,0,18,4,7,0
清心福全三峽文化店-珍珠奶茶手搖飲料專賣店,3.6,58,無酒精飲料店,新北市三峽區文化路16號,24.9358682,121.3733162,98,8,73,2,0,0,0,14,7,3,0
清心福全三峽中華店-珍珠奶茶手搖飲料專賣店,3.7,73,珍珠奶茶,新北市三峽區中華路21號1樓,24.9317207,121.3733697,97,6,59,2,0,0,0,13,7,2,0
正統茗茶製茶廠,4.7,12,茶葉店,新北市三峽區竹崙路97號,24.916712,121.433076,21,1,6,0,0,0,0,1,0,0,0
昱德茗茶,0.0,0,茶葉店,新北市三峽區竹崙路66號,24.9192167,121.4320743,25,1,7,0,0,0,0,1,0,0,0
海山綠葉茶園,0.0,0,茶葉店,新北市三峽區,24.9256438,121.4267134,28,1,6,0,0,0,0,1,0,0,0
金門仔飲料專賣店,4.4,118,冰品飲料店,新北市三重區大智街236號,25.0725835,121.4895396,91,15,76,0,0,2,0,21,6,2,0
雲森茶業,0.0,0,茶葉店, 728 999,23.4857501,120.0843006,0,0,5,0,0,0,0,0,0,0,0
來壺果飲,4.6,87,果汁,新北市三峽區大德路153號,24.9451932,121.37561,69,5,32,0,0,0,0,9,6,2,0
李記紅茶冰-北大龍瑩店,5.0,7,冰品飲料店,新北市樹林區佳園路三段132-1號,24.9499518,121.3857262,46,2,10,0,0,0,0,4,3,0,0
麻古茶坊三峽北大店,3.5,172,珍珠奶茶,新北市三峽區國際一街30號,24.9427912,121.3736611,79,6,50,0,0,0,0,9,6,5,0
茶米屋86,5.0,5,冰品飲料店,新北市三芝區長勤街86號,25.2550708,121.5001433,31,2,11,0,0,0,1,5,3,0,0
三芝農夫市集 璽揚揚手做吐司、蛋黃酥、香草茶,5.0,66,冰品飲料店,新北市三芝區,25.2464414,121.5080817,20,0,2,0,0,0,0,2,0,0,0
CoCo都可 三芝店,4.4,464,冰品飲料店,新北市三芝區中正路一段53號,25.2580262,121.5033625,32,2,11,0,0,0,1,5,2,0,0
葵可麗,5.0,4,冰品飲料店,新北市三芝區中正路一段73號,25.2570618,121.5040849,34,2,11,0,0,0,1,5,2,0,0
清心福全三芝店-珍珠奶茶手搖飲料專賣店,3.7,101,冰品飲料店,新北市三芝區淡金路二段14號,25.2595481,121.5024722,29,2,11,0,0,0,1,5,2,0,0
三芝快可立,4.4,24,珍珠奶茶,新北市三芝區淡金路二段2號,25.2592512,121.5022722,31,2,11,0,0,0,1,5,2,0,0
休閒小站新鮮茶飲專賣,4.6,43,飲料,新北市三芝區中正路一段16號,25.2589791,121.5029035,32,2,11,0,0,0,1,5,2,0,0
茗恩茶莊,4.5,15,茶葉店,新北市三芝區公正街三段4號,25.2568123,121.4989681,30,2,11,0,0,0,1,5,3,0,0
御品香茗茶,0.0,0,茶葉店,新北市三芝區中山路一段110號,25.2562489,121.5024908,34,2,11,0,0,0,1,5,3,0,0
珞樂樂,4.8,49,冰品飲料店,新北市三芝區埔坪里埔頭坑88之7號,25.2547291,121.5068226,37,2,12,0,0,0,1,6,2,0,0
好了啦紅茶冰-三芝智成店,4.5,6,冰品飲料店,新北市三芝區智成街26號,25.2566695,121.5038944,34,2,11,0,0,0,1,5,3,0,0
三芝製茶所-小粟手作,4.4,27,茶葉店,新北市三芝區105號~1 店面在淡金路2段19巷1號,25.2613699,121.4791021,17,0,1,0,0,0,0,4,0,0,0
三分春色 台北小巨蛋店,4.9,335,冰品飲料店,台北市松山區南京東路四段2號1樓,25.0509865,121.5503562,19,22,136,5,2,2,1,22,6,25,0
奶茶站飲料坊,4.5,159,冰品飲料店,台北市大同區重慶北路三段335巷42號,25.074464,121.515217,39,6,31,0,0,1,1,19,6,9,0
思相枝傳統豆花,3.7,82,冰品飲料店,新北市三芝區中正路一段101號,25.2560096,121.5047828,35,2,11,0,0,0,1,5,2,0,0
小粟茶室,0.0,0,茶葉店,新北市三芝區北勢子20號,25.2534722,121.4727693,21,0,1,0,0,0,0,4,0,0,0
福德茶坊,4.7,21,冰品飲料店,新北市淡水區中正路61號,25.1694876,121.4415834,58,1,94,0,0,1,2,14,5,1,0
Milu義調柴飲品店/早午餐,4.7,41,冰品飲料店,新北市泰山區楓江路40-2號,25.0623809,121.434859,53,0,24,0,0,0,0,15,3,7,0
原品手作飲料舖,1.6,10,冰品飲料店,新北市三重區龍濱路20巷6號,25.0676487,121.5027276,56,15,97,0,1,2,2,13,4,9,0
淡水舊鎮50年代枝仔冰,4.2,403,冰品飲料店,新北市淡水區淡金路二段270-1號,25.1885242,121.4471664,69,0,7,0,0,0,0,6,2,1,0
料杯杯BOBOLIAO微風北車店,4.1,262,冰品飲料店,台北市中正區北平西路3號2樓,25.0473866,121.5167338,56,79,176,2,2,5,0,16,8,12,1
芋見幸福大甲芋頭牛奶(三重福德店),4.9,26,冰品飲料店,新北市三重區信義街82號,25.0653305,121.5017357,54,15,105,0,1,2,2,13,4,9,0
蓋斯茶中和永安站,5.0,175,冰品飲料店,新北市中和區中安街18號,25.0031781,121.5133512,114,4,164,1,1,1,1,34,10,21,0
DrinkStore水雲朵台北復興店,4.7,163,冰品飲料店,台北市中山區復興北路154-1號,25.0530117,121.5437952,23,18,124,3,3,3,1,24,8,23,0
泰桑哩SonnyChaThai樂華店（每週二公休）,4.2,241,冰品飲料店,新北市永和區永平路181號,25.0092694,121.5101503,107,4,146,2,1,2,1,41,7,17,0
七盞茶 三重三民店,4.8,79,冰品飲料店,新北市三重區三民街110號1號,25.0633568,121.4850948,62,5,57,0,0,2,0,23,8,7,0
CoCo都可 三民店,4.2,148,冰品飲料店,新北市三重區三民街89號,25.063173,121.4855933,66,5,62,0,0,2,0,21,8,11,0
黑波堂 三重中華店,4.6,51,冰品飲料店,新北市三重區中華路117號,25.0635935,121.4836767,66,4,52,0,0,2,0,23,8,8,0
日月手作茶,5.0,3,冰品飲料店,新北市三重區忠孝路三段40巷50號,25.065847,121.483096,64,5,50,0,0,0,0,25,8,9,0
麻古茶坊三重中華店,4.0,215,冰品飲料店,新北市三重區中華路97號,25.0631662,121.4836687,65,4,51,0,0,2,0,22,8,8,0
紅茶洋行-三重國隆2店,5.0,94,冰品飲料店,新北市三重區三民街319號,25.069004,121.4776437,54,7,33,0,0,0,0,21,7,13,0
好了啦紅茶冰三重中華店,3.5,4,冰品飲料店,新北市三重區中華路104號,25.0634266,121.4833296,66,4,48,0,0,2,0,22,8,8,0
My嘟蘭手工綠豆沙牛乳 三重三民店,4.7,7,冰品飲料店,新北市三重區三民街287號,25.0685591,121.4788743,58,8,36,0,0,0,0,22,7,12,0
李記紅茶冰三重中正北店,4.4,22,冰品飲料店,新北市三重區中正北路244號,25.0679614,121.4816155,68,9,42,0,0,0,0,27,9,9,0
小茶齋-三重店,4.1,198,冰品飲料店,新北市三重區自強路一段216號,25.0665673,121.4941791,94,18,114,0,1,3,1,19,8,10,0
COMEBUY_三重中華店,4.0,138,冰品飲料店,新北市三重區中華路110號,25.063557,121.483311,65,4,48,0,0,2,0,22,8,8,0
豆佳香?濃豆乳 (豆花),4.9,432,冰品飲料店,新北市三重區新北大道一段82號,25.0616747,121.4862335,63,6,70,0,0,2,0,21,8,10,0
皇爵-三重商工店,4.1,133,冰品飲料店,新北市三重區忠孝路二段150號,25.0681408,121.4825321,71,7,47,0,0,0,0,26,10,9,0
果拾鮮果茶,4.5,117,冰品飲料店,新北市三重區重新路四段10-1號,25.0579308,121.4890127,48,7,65,0,1,2,0,16,6,16,0
鮮茶道(三重自強店),4.0,86,冰品飲料店,新北市三重區自強路一段274號,25.0678294,121.4920615,97,16,111,0,1,3,0,20,8,7,0
賞茶,4.0,34,冰品飲料店,新北市三重區忠孝路三段26號,25.0670471,121.4815522,67,8,40,0,0,0,0,24,9,10,0
李記紅茶冰-三重集美店（原中正南店）,5.0,22,冰品飲料店,新北市三重區集美街126巷5號,25.053445,121.4893736,28,4,43,0,0,2,0,13,3,14,0
Baroness小黑糖 雲端,4.2,515,冰品飲料店,新北市三重區新北大道ㄧ段57巷1樓號,25.0607358,121.4858278,61,7,62,0,0,2,0,23,8,11,0
CoCo都可 三重自強店,4.1,136,冰品飲料店,新北市三重區自強路一段250號,25.067316,121.492584,95,17,115,0,1,3,1,20,8,7,0
我想做愛 玉,4.5,183,冰品飲料店,新北市三重區重安街57號,25.0563132,121.4918638,44,6,61,0,1,2,0,14,5,14,0
"萬金紅茶冰 (01/15 - 02/21寒假休息中, 02/22開始營業, 有任何更新請關注FB粉絲專頁)",3.8,643,冰品飲料店,新北市三重區中正南路75號,25.0589761,121.494105,53,13,90,0,1,2,1,14,6,15,0
交心茶,4.4,86,冰品飲料店,新北市三重區集美街184號,25.0534977,121.490538,32,4,42,0,0,2,0,14,3,15,0
喫點冰 / 三重冰店 / 三重豆花 / 芒果冰 / 燒仙草,4.6,71,冰品飲料店,新北市三重區洛陽街23號1樓,25.0632801,121.4827173,63,4,44,0,0,2,0,22,8,9,0
茶詠春-三重自強店,4.0,36,冰品飲料店,新北市三重區自強路一段194號,25.0662299,121.494732,88,17,113,0,1,3,1,19,7,10,0
TEATOP第一味 三重大智店,4.4,76,冰品飲料店,新北市三重區大智街61號,25.0679526,121.4926354,92,17,108,0,1,3,1,18,8,7,0
MOK米歐克三重店,4.8,132,冰品飲料店,新北市三重區中正南路2號1樓,25.0607328,121.4934458,64,15,113,0,1,2,1,16,6,15,0
千千杯甜品（黑糖刨冰｜雪花冰｜甜湯｜傳統豆花）,4.8,128,冰品飲料店,新北市三重區重陽路一段101號,25.0595389,121.4869944,55,7,63,0,0,2,0,19,6,11,0
毒水製茶｜珍珠奶茶｜手搖飲料專賣店,5.0,45,冰品飲料店,新北市三重區環河南路221巷27號,25.052812,121.4913685,29,4,40,0,0,2,0,12,3,13,0
武林茶三重集美店,4.2,52,冰品飲料店,新北市三重區集美街161號,25.053387,121.4908528,32,4,42,0,0,2,0,12,3,15,0
CoCo都可 集美店,3.8,258,冰品飲料店,新北市三重區集美街208號,25.054221,121.491145,35,4,45,0,0,2,0,13,4,14,0
50嵐 中正北店,3.9,433,冰品飲料店,新北市三重區中正北路157號,25.0676882,121.482372,70,7,45,0,0,0,0,26,10,10,0
喫茶趣ToGo(三重店),0.0,0,冰品飲料店,新北市三重區重新路二段15之2號,25.062551,121.4984016,54,14,100,0,1,3,1,13,7,12,0
茶聚CHAGE三重信義店｜香片領導品牌,4.8,130,冰品飲料店,新北市三重區信義西街50號,25.064559,121.498104,69,15,105,0,1,3,1,14,7,11,0
Good Drink讚豆綠豆冰沙三重大智店,4.8,15,冰品飲料店,新北市三重區大仁街62號,25.0650737,121.4922754,93,16,128,0,1,3,1,22,7,9,0
花好月圓 茶飲專賣-三重自強店,4.9,222,冰品飲料店,新北市三重區自強路一段95號,25.0664186,121.4959195,84,15,107,0,1,3,1,19,7,12,0
滿上-仙草愛玉茶飲專賣店-正義北店,4.4,118,冰品飲料店,新北市三重區正義北路231號1樓,25.0690676,121.4960269,82,15,105,0,1,2,1,18,7,10,0
好了啦紅茶冰-三重車路頭,4.9,15,冰品飲料店,新北市三重區車路頭街50號,25.0721624,121.4838146,85,11,55,0,0,1,0,19,11,3,0
鶴玥茶坊,4.8,35,冰品飲料店,新北市三重區中正北路256號,25.0681206,121.4813597,65,9,41,0,0,0,0,27,11,9,0
麻古茶坊三重正義店,4.0,192,冰品飲料店,新北市三重區正義北路61號,25.064415,121.497399,72,15,107,0,1,3,1,16,7,11,0
得正#三重正義計劃 Oolong Tea Project,3.9,220,冰品飲料店,新北市三重區正義北路46號,25.0636445,121.4972927,67,15,105,0,1,3,1,15,7,11,0
都渴以 三重店,4.6,48,冰品飲料店,新北市三重區文化北路226巷49號,25.0691258,121.4964408,77,15,104,0,1,2,1,17,7,9,0
茶詠春-創始店（三重中正北店）,4.7,365,冰品飲料店,新北市三重區中正北路189-1號,25.0696736,121.4773844,52,7,32,0,0,0,0,21,7,13,0
金茶伍手作飲品-三重車路頭門市 woo cha tea shop,4.9,422,冰品飲料店,新北市三重區車路頭街99號,25.0745059,121.4846201,90,11,63,0,0,2,0,22,7,4,0
清心福全三重重陽店-珍珠奶茶手搖飲料專賣店,3.3,134,冰品飲料店,新北市三重區重陽路一段71號,25.058788,121.486902,51,7,62,0,0,2,0,20,5,11,0
進發家-三重三和店,3.7,125,冰品飲料店,新北市三重區三和路三段32號,25.070546,121.4962337,81,14,101,0,1,2,1,20,6,7,0
清心福全三重自強店-珍珠奶茶手搖飲料專賣店,3.8,90,冰品飲料店,新北市三重區自強路一段314號,25.0684778,121.4910977,96,14,109,0,1,2,0,19,8,6,0
貞茶社,5.0,31,冰品飲料店,新北市三重區信義街50號隔壁,25.0652024,121.5009461,52,14,100,0,1,2,1,13,4,10,0
紅茶洋行-三重國隆店,4.7,76,冰品飲料店,新北市三重區國隆路16號,25.0639905,121.4929275,86,17,121,0,1,3,1,20,8,9,0
62茶亭（三重店）,4.9,159,冰品飲料店,新北市三重區文化北路244號,25.0697731,121.4973473,77,15,100,0,1,2,1,18,5,9,0
COMEBUY_三重大同店,3.6,158,冰品飲料店,新北市三重區大同北路42號,25.0628124,121.4951365,70,17,110,0,1,3,1,16,8,12,0
零下21°C 綿綿冰,4.4,925,冰品飲料店,新北市三重區重新路四段106號,25.0567129,121.4873572,42,5,56,0,0,2,0,18,5,15,0
50嵐 重新店,3.8,204,冰品飲料店,新北市三重區重新路三段5號,25.0616888,121.4953704,68,15,109,0,1,2,1,16,7,12,0
黑丸嫩仙草 三重重新店,4.7,12,冰品飲料店,新北市三重區重新路四段244巷50號,25.0538551,121.4882003,29,4,44,0,0,2,0,14,3,14,0
好了啦紅茶冰三重大仁店,2.9,14,冰品飲料店,新北市三重區大仁街58號,25.0650128,121.4921911,92,16,127,0,1,3,1,22,7,9,0
山頂潑 Mountain Pour,4.9,843,冰品飲料店,新北市三重區捷運路19巷4弄2號,25.05642,121.4850958,43,5,51,0,0,2,0,18,4,11,0
微堂well done 三重店,4.9,165,冰品飲料店,新北市三重區車路頭街176號,25.077,121.4836897,78,10,53,0,0,2,0,28,6,4,0
米茶meetea(三和店),4.3,66,冰品飲料店,新北市三重區三和路二段95號,25.0685116,121.4995745,68,13,97,0,1,2,1,15,3,10,0
三和古早味鮮奶茶?MilkTea,5.0,70,冰品飲料店,新北市三重區中央北路74號三和夜市,25.0663508,121.5002456,59,14,98,0,1,2,1,17,4,10,0
桃鳳湯,3.8,6,冰品飲料店,新北市三重區三陽路11-1號,25.0588877,121.4860931,54,7,60,0,0,2,0,20,7,10,0
源陞紅茶,4.7,67,冰品飲料店,新北市三重區車路頭街116號,25.075129,121.4841499,86,11,60,0,0,2,0,22,7,4,0
CoCo都可 三重中正北店,4.2,206,冰品飲料店,新北市三重區中正北路362號,25.0694624,121.4771702,52,7,31,0,0,0,0,21,7,13,0
COMEBUY_三重自強,4.0,28,冰品飲料店,新北市三重區自強路三段17號,25.0722645,121.4870682,97,14,76,0,0,2,0,22,8,3,0
水月手工冰棒,4.7,143,冰品飲料店,新北市三重區力行路一段179巷8-2號,25.0700447,121.4848481,85,9,62,0,0,1,0,21,11,3,0
龜記茗品 正義北店,4.2,206,冰品飲料店,新北市三重區正義北路12號,25.0628279,121.4975392,58,16,101,0,1,3,1,15,7,12,0
李記紅茶冰-三重文化北店,4.2,38,冰品飲料店,新北市三重區文化北路33-7號,25.0646671,121.4992314,65,14,105,0,1,3,1,14,6,12,0
冬瓜幫,4.5,53,冰品飲料店,新北市三重區公園街17號,25.0729409,121.4991904,67,12,75,0,0,1,0,18,4,4,0
紅茶洋行-三重三和店,3.8,13,冰品飲料店,新北市三重區三和路四段7號,25.0741898,121.4914861,93,14,79,0,0,2,0,25,5,2,0
天一青草茶,4.5,110,冰品飲料店,新北市三重區自強路一段29號,25.0678291,121.4981957,76,14,100,0,1,2,1,18,6,10,0
COMEBUY力行店,3.6,146,冰品飲料店,新北市三重區車路頭街167號,25.0775085,121.4837213,80,10,54,0,0,2,0,28,6,4,0
虎您嘎飲 回甘茶品手搖飲 現炸手?饅頭 手炒黑糖,4.6,32,冰品飲料店,新北市中寮街31號中段右側 1樓,25.0588751,121.49254,58,8,90,0,1,2,0,16,6,15,0
紅茶洋行 三重永福店,4.8,20,冰品飲料店,新北市三重區永福街175-1號,25.0754942,121.4787742,79,9,55,0,0,2,0,19,5,4,0
一手私藏世界紅茶 三重三和店,4.2,153,冰品飲料店,新北市三重區三和路二段16-1號,25.067202,121.500655,60,13,97,0,1,2,1,14,4,11,0
清心福全三重大同北店-珍珠奶茶手搖飲料專賣店,3.5,64,冰品飲料店,新北市三重區大同北路53號,25.0632336,121.495293,74,16,110,0,1,3,1,17,6,12,0
米家冰品,4.3,192,冰品飲料店,新北市三重區正義北路278－1號,25.0690833,121.4956628,83,15,106,0,1,2,1,18,7,10,0
清心福全三重集美店-珍珠奶茶手搖飲料專賣店,3.8,89,珍珠奶茶,新北市三重區集美街136號,25.0532024,121.489421,28,4,43,0,0,2,0,13,3,13,0
清水糖,4.3,322,冰品飲料店,新北市三重區文化北路31之1號,25.0640766,121.4994638,57,14,102,0,1,3,1,13,5,11,0
泡泡茶冷熱飲雞排專賣店,4.6,23,冰品飲料店,新北市三重區介壽路39巷78號,25.0704251,121.5004625,63,12,86,0,0,2,1,13,3,6,0
林心堂青草茶,0.0,0,冰品飲料店,新北市三重區大仁街35號1樓,25.0653046,121.492922,90,16,126,0,1,3,1,21,7,9,0
清心福全三重力行店-珍珠奶茶手搖飲料專賣店,4.1,93,冰品飲料店,新北市三重區力行路二段119號,25.0764585,121.4829458,77,9,62,0,0,2,0,26,6,4,0
50嵐 正義店,3.7,243,冰品飲料店,新北市三重區正義北路251號,25.0696346,121.4958072,82,15,103,0,1,2,1,19,7,9,0
順星站,4.5,19,冰品飲料店,新北市三重區三和路四段20巷124號,25.0730151,121.4881036,92,15,81,0,0,2,0,20,7,3,0
50嵐三重文化店,3.5,177,冰品飲料店,新北市三重區文化北路61-3號,25.0664063,121.4986898,73,15,101,0,1,2,1,16,5,12,0
可可亞.楊桃汁,4.7,18,冰品飲料店,新北市三重區正義北路2巷,25.0624858,121.4977638,57,15,100,0,1,3,1,15,7,12,0
老賴茶棧新北三重店,4.0,94,冰品飲料店,沒有地址,25.082865,121.4922853,72,6,27,0,0,1,0,25,5,2,0
"馥御私房手作茶,牛奶,羊奶,奶蓋專賣,黑糖珍珠奶茶、鮮奶茶專賣店,手搖飲,OATLY燕麥奶,焦糖布蕾奶蓋,預約外送,開放加盟中",4.9,1,冰品飲料店,新北市三重區中央北路26號,25.0642994,121.5005795,50,14,100,0,1,2,1,13,5,11,0
101飲料專賣店,3.0,14,冰品飲料店,新北市三重區自強路五段,25.080065,121.4918066,92,7,47,0,0,1,0,26,7,2,0
趙平米苔目黑糖剉冰,4.4,93,冰品飲料店,新北市三重區大同北路184巷12號,25.0654137,121.4914903,97,16,125,0,1,3,1,22,6,8,0
杯杯樂【綠豆沙】專賣店,4.8,81,冰品飲料店,新北市三重區文化北路22-2號,25.0642503,121.4992035,61,14,103,0,1,3,1,13,6,11,0
迷客夏Milksha 新北三和店,3.3,332,冰品飲料店,新北市三重區三和路三段18號,25.070236,121.4967069,78,14,101,0,1,2,1,19,6,8,0
鮮茶道（三重福隆店）,4.1,74,冰品飲料店,新北市三重區福隆路36號1樓,25.0784022,121.4921607,90,7,53,0,0,2,0,25,5,1,0
得正#三重徐匯計劃,3.5,189,冰品飲料店,新北市三重區三和路四段209號,25.0795948,121.4817669,80,7,66,0,0,2,0,30,6,3,0
五桐號WooTea 新北三重文化北店,3.0,227,冰品飲料店,新北市三重區文化北路20號,25.0641062,121.4991621,59,14,103,0,1,3,1,13,6,11,0
白巷子三重三和店,3.2,149,冰品飲料店,新北市三重區三和路四段229號,25.0798545,121.4812848,86,7,76,0,0,2,0,28,6,3,0
零度甜 冰品/豆花/甜湯,4.1,279,冰品飲料店,新北市三重區仁愛街20號,25.0711965,121.4965687,83,16,100,0,0,2,1,20,6,5,0
康青龍 三重台北橋店,3.1,95,冰品飲料店,新北市三重區重新路一段106號,25.0632105,121.5009429,46,14,94,0,1,2,1,11,5,9,0
喉饑果汁-現打果汁專賣店,4.3,3,冰品飲料店,新北市三重區重陽路三段5巷13號,25.065237,121.491052,96,13,124,0,1,3,0,22,6,8,0
KING KONG金剛咖啡茶飲,4.6,125,冰品飲料店,新北市三重區大同南路160號,25.0576245,121.4965488,43,7,76,0,1,2,1,12,5,17,0
COMEBUY_三重文化店,3.6,67,冰品飲料店,新北市三重區文化北路156號,25.0673587,121.4981492,76,15,99,0,1,2,1,17,6,12,0
康青龍 三重車路頭店,3.5,130,冰品飲料店,新北市三重區車路頭街163號,25.0773578,121.4837151,78,10,53,0,0,2,0,28,6,4,0
巷覓豆花,4.9,133,冰品飲料店,新北市三重區萬壽街59號,25.0695873,121.5006769,65,13,93,0,1,2,1,11,3,7,0
哪次布喝,3.8,49,珍珠奶茶,新北市三重區仁愛街347號,25.0796846,121.4921647,89,8,49,0,0,1,0,25,7,2,0
黑堂甜品專賣店,4.5,234,冰品飲料店,新北市三重區正義南路39號,25.0609112,121.4979651,51,14,95,0,1,2,1,14,5,12,0
上宇林三重文化北店,4.5,93,冰品飲料店,新北市三重區文化北路14號1樓,25.0637939,121.499278,54,14,98,0,1,3,1,13,6,11,0
糖玄宗黑糖鮮飲 & 瘋碳烤-三重文化北店,3.8,99,冰品飲料店,新北市三重區文化北路20號,25.0641062,121.4991621,59,14,103,0,1,3,1,13,6,11,0
清源專業青草工廠直營店,4.4,16,冰品飲料店,新北市三重區國隆路6號,25.0636135,121.4934504,85,17,118,0,1,3,1,19,9,10,0
COMEBUY_三重長壽店,4.0,38,冰品飲料店,新北市三重區長壽街23號-2號,25.0678201,121.4995351,69,13,98,0,1,2,1,15,4,10,0
鶴茶樓- 鶴頂紅茶商店(三重重新店),3.8,306,珍珠奶茶,新北市三重區重新路一段127號,25.0632476,121.5001266,51,13,94,0,1,3,1,12,5,10,0
迷客夏Milksha 新北三重店,3.9,344,冰品飲料店,新北市三重區五華街138號,25.083821,121.491446,71,5,27,0,0,1,0,30,4,3,0
三和古早味黑糖剉冰 （無固定公休日 ）,4.9,661,冰品飲料店,新北市三重區中央北路46號,25.064886,121.500649,53,14,102,0,1,2,1,13,4,11,0
龍門西瓜汁｜果汁、飲料、冰沙｜20年老店｜三重飲料推薦,4.6,130,冰品飲料店,新北市三重區龍門路132號1 樓,25.0730362,121.4981652,73,12,75,0,0,1,0,19,4,3,0
幸福多芋點,4.2,5,無酒精飲料店,新北市三重區三民街309號,25.0690527,121.4781321,57,8,35,0,0,0,0,22,7,13,0
七盞茶 三重五華店,4.8,280,冰品飲料店,新北市三重區五華街91號,25.0835402,121.4919316,70,5,27,0,0,1,0,27,4,2,0
漿樣子濃?豆乳-三重力行店,4.5,84,冰品飲料店,新北市三重區力行路二段71-1號,25.0751818,121.4824535,77,10,57,0,0,2,0,24,7,4,0
五桐號ＷooTea新北三重五華店,4.2,22,冰品飲料店,新北市三重區五華街144號,25.0839265,121.4913188,71,5,27,0,0,1,0,30,4,3,0
清心福全三重三和店-珍珠奶茶手搖飲料專賣店,4.0,190,珍珠奶茶,新北市三重區三和路四段197號,25.0793421,121.4822075,81,7,63,0,0,2,0,29,6,3,0
一沐日-三重三和店,3.8,71,冰品飲料店,新北市三重區三和路二段81號,25.068257,121.499969,67,13,97,0,1,2,1,13,3,10,0
日春木瓜牛奶-龍門店-三重木瓜牛奶|水果飲品|果汁飲品|現打果汁|平價果汁|新鮮果汁,4.4,57,冰品飲料店,新北市三重區龍門路166號1樓,25.0733067,121.4988741,69,12,69,0,0,1,0,18,4,3,0
茶詠春-三重光復店,4.7,301,冰品飲料店,新北市三重區光復路一段68巷58號,25.0491698,121.4697967,51,5,31,1,0,2,0,12,4,3,0
啜茶,4.1,27,冰品飲料店,新北市三重區光復路一段68巷30號1樓,25.0491721,121.4707568,50,5,32,1,0,1,0,13,4,3,0
粉紅泡泡飲品甜點專賣店,4.8,151,冰品飲料店,新北市三重區重新路五段568號,25.0456759,121.4699456,36,4,20,1,0,1,0,11,4,2,0
讚豆綠豆冰沙-三重光復店（目前只接外送）,5.0,10,冰品飲料店,新北市三重區光復路一段68巷29號,25.0493978,121.4700545,50,5,31,1,0,1,0,12,4,3,0
光復古早味黑砂糖剉冰,3.9,29,冰品飲料店,新北市三重區光復路一段68巷32號,25.049158,121.4707285,50,5,32,1,0,1,0,13,4,3,0
好了啦-三重重新店,0.0,0,冰品飲料店,新北市三重區重新路四段244巷50號,25.0537797,121.4881897,29,4,44,0,0,2,0,14,3,14,0
茶境 Gala 極匠一店,0.0,0,冰品飲料店,新北市三重區疏洪十六路1號,25.0506287,121.4822696,20,2,23,0,0,1,0,13,3,9,0
玖荳茶飲&甜點,5.0,7,冰品飲料店,新北市三重區成功路106-3號,25.0514987,121.4872907,20,3,35,0,0,1,0,12,2,11,0
小冰箱冷飲,5.0,2,冰品飲料店,新北市三重區重新路四段61號1樓,25.0573558,121.4875087,44,5,62,0,0,2,0,19,5,15,0
清心福全三重中興店-珍珠奶茶手搖飲料專賣店,4.0,114,無酒精飲料店,新北市三重區中正北路413號,25.0723767,121.4709021,46,4,18,0,0,0,0,14,2,8,0
鮮萃 現泡茶專門店／（熱飲）薑母茶 桂圓紅棗茶／仙草鮮奶凍,4.3,12,冰品飲料店,新北市三重區電信街128-1號,25.0580259,121.4945833,51,9,86,0,1,2,1,14,6,16,0
李記紅茶冰-三重永福店,3.8,36,冰品飲料店,新北市三重區永福街217號,25.0744116,121.4800798,79,10,49,0,0,2,0,19,8,4,0
美白羊肉爐,0.0,0,冰品飲料店,新北市三重區捷運路39號,25.0560733,121.4842068,38,4,44,0,0,2,0,20,4,11,0
茶詠春-三重溪尾店,4.2,28,冰品飲料店,新北市三重區溪尾街236號,25.0817986,121.4876681,101,9,61,0,0,2,0,30,8,2,0
交心茶 Justea,4.8,21,冰淇淋設備供應商,m.facebook.com,25.051969,121.4937175,24,3,34,0,0,1,0,9,4,9,0
Drink Store 化成店,3.7,107,冰品飲料店,新北市新莊區化成路316號,25.0484341,121.4658032,71,7,62,2,0,2,0,10,5,1,0
三重成功豆花,4.3,62,冰品飲料店,新北市三重區成功路145巷49號1樓,25.0536246,121.4879346,29,4,44,0,0,2,0,14,3,14,0
可不可熟成紅茶 新莊化成店,4.1,124,冰品飲料店,新北市新莊區化成路205-1號,25.0510146,121.4657457,68,7,60,1,0,2,0,12,5,2,0
紅茶洋行-力行店,4.6,10,冰品飲料店,新北市三重區力行路二段139號,25.0771876,121.4835316,78,10,53,0,0,2,0,28,6,4,0
老賴茶棧新北三重店,4.0,94,冰品飲料店,新北市三重區五華街110之1號,25.082865,121.4922853,72,6,27,0,0,1,0,25,5,2,0
善圓冰品店,0.0,0,冰品飲料店,新北市新莊區化成路192號,25.0460656,121.4658691,64,6,50,3,0,3,0,7,3,3,0
好了啦超大杯 重光店,5.0,7,冰品飲料店,新北市三重區重光街124-1號,25.0649932,121.4661216,42,6,23,0,1,1,1,18,3,10,0
乩仔兵中正北店,0.0,0,冰品飲料店,新北市三重區中正北路542號,25.0719231,121.4713597,46,4,16,0,0,0,0,15,4,10,0
"萬金紅茶冰 (01/15 - 02/21寒假休息中, 02/22開始營業, 有任何更新請關注FB粉絲專頁)",3.8,643,冰品飲料店,新北市三重區力行路一段179巷8-2號,25.0589761,121.494105,53,13,90,0,1,2,1,14,6,15,0
茶與布朗 Tea&Brown 三重店,4.6,98,無酒精飲料店,新北市三重區中華路69號,25.0624317,121.4837586,63,4,49,0,0,2,0,21,8,11,0
春雨制茶「三重店」-三重必喝飲品|人氣飲料|推薦手搖|冬季飲品|飲料店推薦|珍珠奶茶推薦,4.7,195,珍珠奶茶,新北市三重區自強路一段153號,25.0670269,121.4937611,94,17,114,0,1,3,1,17,8,8,0
都渴以-乳製飲品專賣（三重店）,5.0,3,冰品飲料店,新北市三重區三民街295號,25.0687227,121.4784528,58,8,35,0,0,0,0,22,7,12,0
仙古茶道（仁美店）,3.1,68,冰品飲料店,新北市三重區仁美街87號,25.0798588,121.4860897,98,11,66,0,0,2,0,28,8,2,0
哈米?綠豆沙、茶飲、果汁 (三和夜市商圈宵夜必喝),4.7,35,冰品飲料店,新北市三重區自強路一段8號隔壁木頭攤車（不要買錯囉,25.068313,121.498924,70,14,98,0,1,2,1,15,4,10,0
沒有名字的泰奶店,4.9,58,冰品飲料店,新北市三重區中央北路125號,25.0679744,121.4999321,67,13,97,0,1,2,1,14,4,10,0
涼水庫溪尾店,2.8,9,冰品飲料店,新北市三重區溪尾街200號,25.0810362,121.4882338,102,9,56,0,0,2,0,33,8,2,0
天仁茗茶 三重店,4.2,194,珍珠奶茶,新北市三重區重新路二段15之2號,25.0625404,121.498376,55,14,100,0,1,3,1,13,7,12,0
歡喜紅茶冰-黑糖粉圓專賣店,4.8,66,冰品飲料店,新北市三重區長榮路25-3號,25.0685859,121.5008229,63,13,95,0,1,2,1,13,3,8,0
我想做愛 玉,4.5,183,冰品飲料店,沒有地址,25.0563132,121.4918638,44,6,61,0,1,2,0,14,5,14,0
康青龍 三重中興店,5.0,1,冰品飲料店,新北市三重區中興北街207號,25.057897,121.46912,54,3,28,0,0,0,0,17,1,10,0
清心福全三重光復店-珍珠奶茶手搖飲料專賣店,3.9,41,無酒精飲料店,新北市三重區光復路一段68巷42號1樓,25.0491563,121.4703554,50,5,32,1,0,1,0,12,4,3,0
日 堯 君 泰式茶品,5.0,26,冰品飲料店,新北市三重區三張街149巷28號,25.0703758,121.4859717,83,11,69,0,0,1,0,19,11,3,0
茶主席,4.4,27,冰品飲料店,新北市三重區重新路五段555號,25.0461449,121.470505,37,4,20,1,0,1,0,11,4,3,0
茶·清流 頂級純味茶職人,0.0,0,冰品飲料店,新北市三重區光復路一段1號,25.0468807,121.4723278,37,4,21,1,0,1,0,9,4,3,0
清心福全三重光明店-珍珠奶茶手搖飲專賣店,4.0,145,珍珠奶茶,新北市三重區光明路67-1號,25.0574059,121.4916414,50,6,68,0,1,2,0,15,6,15,0
微笑檸檬脆皮香草香雞排（三重成功店）,4.4,103,冰品飲料店,新北市三重區成功路103號,25.0517094,121.4880664,20,3,36,0,0,2,0,11,3,11,0
三重 正土味傳統手工豆花,4.0,281,冰品飲料店,新北市三重區環河南路221巷25號,25.0527927,121.4914059,29,4,40,0,0,2,0,12,3,13,0
好好x好好茶飲,3.7,157,冰品飲料店,新北市三重區文化北路45號1樓,25.0655333,121.498951,68,15,104,0,1,3,1,15,5,12,0
Louisa Coffee 路易．莎咖啡(三重成功店),3.8,356,冰品飲料店,新北市三重區成功路98號,25.0511785,121.4878629,18,3,35,0,0,1,0,11,2,11,0
天狗神社 高大鮮奶茶/扭蛋機抽獎,4.9,579,冰品飲料店,新北市三重區中央北路,25.0645635,121.5008648,52,15,101,0,1,2,1,13,4,11,0
三和夜市 桔室-金桔檸檬,4.5,40,冰品飲料店,新北市三重區中央北路91號,25.0669589,121.5002509,63,13,98,0,1,2,1,16,4,10,0
ZEN IN﹒好食,5.0,232,冰品飲料店,新北市三重區中央北路26號_中央市場2店,25.0642962,121.5005763,50,14,100,0,1,2,1,13,5,11,0
綠豆沙牛奶-沙很大！專賣店,5.0,1,冰品飲料店,新北市三重區中央北路26號,25.0644238,121.5007327,51,14,100,0,1,2,1,13,5,11,0
品定雪花冰,4.1,70,冰品飲料店,新北市三重區中央北路67號特67-1號1樓,25.0660272,121.5005376,60,14,98,0,1,2,1,16,4,10,0
湘亭軒,4.5,17,冰品飲料店,新北市三重區文化南路55號1樓,25.0610509,121.4999993,44,15,92,0,1,2,1,12,2,11,0
七盞茶 三重自強店,4.5,297,冰品飲料店,新北市三重區自強路一段8號,25.068313,121.498924,70,14,98,0,1,2,1,15,4,10,0
米軍紅茶,4.9,18,冰品飲料店,新北市三重區中正南177號1樓,25.0553511,121.4935397,40,5,56,0,1,1,0,13,4,14,0
三重區光明路開心冰店,5.0,23,冰品飲料店,新北市三重區光明路100號,25.0565089,121.4924886,44,5,63,0,1,1,0,15,5,14,0
玄黑糖鮮奶波霸,1.0,3,冰品飲料店,新北市三重區中正南路146號,25.0574652,121.4944702,49,7,81,0,1,2,1,13,6,17,0
桃味茶三重三陽店,4.3,6,冰品飲料店,新北市三重區三陽路18號,25.058565,121.4857861,51,7,58,0,0,2,0,19,7,11,0
熊果園,4.5,72,冰品飲料店,新北市三重區溪尾街253號,25.0816906,121.4879931,100,9,59,0,0,2,0,31,8,2,0
茶研茶 蘆洲總店,4.8,261,冰品飲料店,新北市蘆洲區中山一路74巷1號,25.0811883,121.478811,93,6,96,0,0,3,1,26,5,3,0
魚池新語-三重仁愛店,4.4,65,冰品飲料店,新北市三重區仁愛街513號,25.0822799,121.4877505,102,9,63,0,0,2,0,31,8,2,0
清心福全溪尾店-珍珠奶茶手搖飲料專賣店,3.0,109,冰品飲料店,新北市三重區溪尾街243號,25.0814781,121.4881421,99,9,57,0,0,2,0,33,8,2,0
可不可熟成紅茶-三重五華店,4.1,78,冰品飲料店,新北市三重區五華街108之2號,25.0827269,121.4924719,72,6,27,0,0,1,0,24,5,2,0
好了啦紅茶冰(三重長安店),5.0,1,冰品飲料店,新北市三重區長安街67-1號,25.0672704,121.5011636,60,13,97,0,1,2,1,14,4,9,0
田園綠豆湯,4.5,82,冰品飲料店,新北市三重區大榮街53號,25.0634991,121.49927,53,14,97,0,1,3,1,13,5,11,0
豆花,4.3,18,冰品飲料店,新北市三重區正義南路59號1樓,25.0604504,121.4981655,47,14,92,0,1,2,1,13,4,12,0
同樂冰店,0.0,0,冰品飲料店,新北市三重區大同南路198號,25.0568573,121.4969237,40,6,66,0,1,2,1,13,4,17,0
福茶（三和夜市）,5.0,41,冰品飲料店,新北市三重區中央北路75-1號三和夜市,25.0664122,121.5004159,59,13,98,0,1,2,1,16,4,10,0
先喝道三重三和店,4.2,140,無酒精飲料店,新北市三重區三和路三段43號,25.0714041,121.4955786,89,14,96,0,0,1,0,23,6,4,0
50嵐 同安店,4.1,369,冰品飲料店,台北市中正區同安街32號,25.0243088,121.5217755,33,6,74,1,0,3,1,13,8,21,0
茶聚CHAGE台北長安店,4.3,469,冰品飲料店,台北市大同區長安西路129號,25.051396,121.5152907,63,80,200,1,2,4,2,21,8,12,1
陳Q黑砂糖剉冰,3.9,866,冰品飲料店,新北市三重區自強路一段226號,25.0667573,121.4937732,94,18,115,0,1,3,1,18,9,10,0
貳室USroom?dessert,4.5,417,冰品飲料店,新北市三重區文化南路14號,25.0619246,121.5002204,45,14,94,0,1,2,1,12,5,11,0
迪茶 迪化店,3.3,446,冰品飲料店,台北市大同區迪化街一段10號,25.0540762,121.5100722,54,29,106,1,0,1,2,17,10,9,1
古早味杏仁露,3.1,183,冰品飲料店,台北市大同區迪化街一段21號,25.0552408,121.5103053,48,26,94,1,0,2,3,17,11,9,0
馬祖奶茶 西門店,5.0,694,冰品飲料店,台北市萬華區漢口街二段54-34號,25.0459047,121.5057869,64,49,120,1,6,2,0,10,4,6,0
滿上-仙草愛玉茶飲專賣店-正義北店,4.4,118,冰品飲料店,沒有地址,25.0690676,121.4960269,82,15,105,0,1,2,1,18,7,10,0
新鮮果汁,0.0,0,冰品飲料店,新北市三重區中央北路2號號 No,25.063594,121.5011374,45,14,93,0,1,2,1,11,5,9,0
COMEBUY_三重仁美,3.7,21,冰品飲料店,新北市三重區仁美街83號,25.079616,121.4861338,96,11,65,0,0,2,0,29,8,2,0
又飽又涼 傳統米苔目剉冰,4.4,252,冰品飲料店,新北市三重區溪尾街128-1號,25.0794407,121.4892477,98,9,52,0,0,1,0,32,9,2,0
大台北茶行,4.2,11,茶葉店,新北市三重區三和路四段360號,25.0784003,121.483256,86,10,63,0,0,2,0,29,7,4,0
50嵐 三和店,4.0,459,冰品飲料店,新北市三重區三和路四段205號,25.0794716,121.4819867,80,7,63,0,0,2,0,30,6,3,0
北投紅茶-蘆洲得勝店,3.8,119,冰品飲料店,新北市蘆洲區得勝街76號1樓,25.0835908,121.4724585,116,3,108,0,0,2,1,23,5,2,0
台灣芒果冰專賣店,4.2,345,冰品飲料店,新北市三重區溪尾街279號,25.0824576,121.4874306,102,9,64,0,0,2,0,31,8,2,0
四季米苔目冰/現煮甜湯,4.7,39,冰品飲料店,新北市三重區溪尾街240號正豐臭豆腐旁,25.0818693,121.4876164,101,9,61,0,0,2,0,29,8,2,0
果汁樂園/現打新鮮果汁,4.9,12,果汁,新北市三重區力行路二段202號,25.0777901,121.4835035,81,10,55,0,0,2,0,28,6,4,0
黑 密 碼 (五股四維店),5.0,28,冰品飲料店,新北市五股區四維路127號,25.0739364,121.4674409,60,4,43,0,0,0,0,12,2,6,0
清原芋圓 三重溪尾店,4.2,308,冰品飲料店,新北市三重區溪尾街221號,25.0810945,121.4884142,99,9,55,0,0,2,0,33,8,2,0
COYTEA（新北蘆洲店）- 嗑以茶,4.5,119,冰品飲料店,新北市蘆洲區中山一路56號,25.0810959,121.479209,96,6,93,0,0,3,1,25,6,3,0
兜喜茶 DooTea,4.9,66,冰品飲料店,新北市蘆洲區中正路28號,25.0822876,121.4713471,104,3,109,0,0,2,1,21,5,2,0
涼杯杯 古早味香蕉清冰專賣店,3.7,26,冰品飲料店,新北市蘆洲區中山二路101號,25.0816314,121.4726355,103,5,109,0,0,2,1,20,6,2,0
DrinkStore水雲朵蘆洲中正店,4.1,93,冰品飲料店,新北市蘆洲區中正路103號1樓,25.0841003,121.4697417,109,2,116,0,0,2,1,25,4,2,0
杜芳子古味茶鋪 蘆洲中正店,4.2,191,冰品飲料店,新北市蘆洲區中正路52號,25.0828522,121.4708795,106,2,111,0,0,2,1,22,5,2,0
拾?茶屋 蘆洲中山店,4.7,31,冰品飲料店,新北市蘆洲區中山二路121號1F,25.0815934,121.4723148,101,5,106,0,0,2,1,20,6,2,0
七盞茶 蘆洲光華店,4.8,55,冰品飲料店,新北市蘆洲區光華路154號1樓,25.0823163,121.465742,110,2,97,0,0,1,1,21,4,2,0
五桐號WOOTEA新北蘆洲光華店,4.1,47,冰品飲料店,新北市蘆洲區光華路124號1 樓,25.0825407,121.466632,111,2,98,0,0,1,1,21,4,2,0
紅茶洋行蘆洲中山店,4.0,17,冰品飲料店,新北市蘆洲區中山二路211號,25.08036,121.470612,102,4,98,0,0,2,1,19,5,2,0
享檸樂,4.0,49,無酒精飲料店,新北市三重區文化北路87巷1-1號號,25.0673515,121.4983473,74,15,98,0,1,2,1,17,6,11,0
Sora Umi 手作飲品,4.3,11,冰品飲料店,新北市三重區溪尾街190號,25.0808228,121.4882453,102,9,56,0,0,2,0,33,8,2,0
車路頭的泡泡冰,4.5,10,冰品飲料店,新北市三重區車路頭街139巷6號,25.0763199,121.4840796,81,10,55,0,0,2,0,27,6,4,0
五爽剉冰,4.8,11,冰品飲料店,新北市三重區自強路二段74巷67號,25.0695836,121.4869481,97,11,78,0,0,2,0,20,10,5,0
角頭胖達芒果冰,4.3,40,冰品飲料店,新北市蘆洲區信義路178號,25.0841277,121.4793348,99,5,95,0,0,2,1,26,5,2,0
陳家關西燒仙草,0.0,0,冰品飲料店,新北市三重區疏洪十六路24號重新橋觀光市集美食區號攤,25.049449,121.4800048,20,3,14,0,0,2,0,11,2,11,0
茶境 Gala,0.0,0,冰品飲料店,新北市三重區安慶街340號,25.0670769,121.488332,89,12,77,0,0,2,0,21,9,5,0
力將養生藥膳茶,0.0,0,冰品飲料店,新北市三重區信義街20號,25.0650648,121.4996553,63,14,105,0,1,2,1,14,4,11,0
艾思手作甜品小棧,5.0,3,冰品飲料店,新北市三重區三和路四段32巷46號1樓,25.0738184,121.4898327,88,13,78,0,0,2,0,25,6,2,0
仙古茶道（仁愛店）,3.5,46,冰品飲料店,新北市三重區仁愛街38號,25.0718359,121.4963189,86,15,93,0,0,1,0,22,5,4,0
毒水製茶｜珍珠奶茶｜手搖飲料專賣店,5.0,45,冰品飲料店,新北市三重區重新路四段61號1樓,25.052812,121.4913685,29,4,40,0,0,2,0,12,3,13,0
清心福全三重中華店-珍珠奶茶手搖飲料專賣店,4.2,84,珍珠奶茶,新北市三重區中華路71號,25.0624797,121.4837536,64,4,49,0,0,2,0,21,8,11,0
CoCo都可 集美店,3.8,258,冰品飲料店,新北市三重區永福街217號,25.054221,121.491145,35,4,45,0,0,2,0,13,4,14,0
交心茶 Justea,4.8,21,冰淇淋設備供應商,沒有地址,25.051969,121.4937175,24,3,34,0,0,1,0,9,4,9,0
清心福全 三重龍門店,4.4,132,冰品飲料店,新北市三重區龍門路93號,25.0724946,121.4973719,77,12,84,0,0,1,0,21,5,4,0
壺口調茶手作特調茶飲-三重永福創始店,4.1,8,珍珠奶茶,新北市三重區永福街56號,25.0779877,121.4815052,72,7,59,0,0,2,0,24,5,4,0
清心福全三重五華店-珍珠奶茶手搖飲料專賣店,3.9,144,珍珠奶茶,新北市三重區五華街136之1號,25.0837371,121.4915329,71,5,27,0,0,1,0,30,4,3,0
紅茶洋行-三重國隆店,4.7,76,冰品飲料店,沒有地址,25.0639905,121.4929275,86,17,121,0,1,3,1,20,8,9,0
清心福全三重正義北-珍珠奶茶手搖飲料專賣店,3.3,121,無酒精飲料店,新北市三重區正義北路219號,25.0688097,121.4961032,84,15,105,0,1,2,1,17,7,10,0
清心福全三重三和店-珍珠奶茶手搖飲料專賣店,4.0,190,珍珠奶茶,沒有地址,25.0793421,121.4822075,81,7,63,0,0,2,0,29,6,3,0
小妞茶飲,5.0,10,冰品飲料店,新北市三重區正義北路256巷7號,25.0684751,121.4955793,85,15,106,0,1,2,1,18,7,10,0
Good Drink讚豆綠豆冰沙三重大智店,4.8,15,冰品飲料店,沒有地址,25.0650737,121.4922754,93,16,128,0,1,3,1,22,7,9,0
好了啦紅茶冰-三重文化北,5.0,2,無酒精飲料店,新北市三重區文化北路24號,25.0644177,121.4990717,63,14,104,0,1,3,1,13,6,12,0
三和愛玉冰,2.3,12,冰品飲料店,新北市三重區中央北路125~3號,25.0679545,121.4998746,67,13,97,0,1,2,1,14,4,10,0
茶聚CHAGE三重信義店｜香片領導品牌,4.8,130,冰品飲料店,沒有地址,25.064559,121.498104,69,15,105,0,1,3,1,14,7,11,0
拾?茶屋三重自強店,4.4,7,冰品飲料店,新北市三重區自強路一段205號,25.0684839,121.4916194,93,13,104,0,1,2,0,19,8,6,0
泰迪熊私藏茶 三重店,4.0,44,冰品飲料店,新北市三重區新北大道一段62號,25.0615506,121.4870263,58,6,73,0,0,2,0,21,8,10,0
學理茗茶,4.5,2,茶葉店,新北市三重區頂崁街210巷20號,25.0677609,121.4762898,47,5,27,0,0,0,0,17,7,12,0
COMEBUY_三重溪尾,4.0,73,冰品飲料店,新北市三重區溪尾街215號,25.0809857,121.4883763,102,9,55,0,0,2,0,33,8,2,0
陳Q黑砂糖剉冰,3.9,866,冰品飲料店,沒有地址,25.0667573,121.4937732,94,18,115,0,1,3,1,18,9,10,0
都渴以 Whatever -新莊五工店,4.6,5,冰品飲料店,新北市新莊區五工三路85號,25.0651336,121.4585985,52,6,16,0,1,1,1,18,1,3,0
好了啦紅茶冰-新莊頭前店,5.0,8,冰品飲料店,新北市新莊區化成路357號,25.0568024,121.4656566,62,5,38,0,0,2,0,17,2,5,0
CoCo都可 新莊化成店,4.1,134,冰品飲料店,新北市新莊區化成路618號,25.0548579,121.4661376,63,6,45,1,0,2,0,14,2,2,0
50嵐 頭前店,4.2,310,冰品飲料店,新北市新莊區化成路209-2號,25.051575,121.465991,70,7,61,1,0,2,0,12,4,2,0
關渡古錐ㄟ,5.0,2,冰品飲料店,新北市新莊區五工三路94巷4號1樓,25.065637,121.4584506,52,6,16,0,1,1,1,19,1,3,0
七盞茶 新莊化成店,4.6,81,冰品飲料店,新北市新莊區化成路289號,25.0549284,121.4660179,62,6,45,1,0,2,0,14,2,2,0
COMEBUY_新莊化成店,3.7,39,冰品飲料店,新北市新莊區化成路624號,25.0550092,121.4662512,61,6,45,1,0,2,0,14,2,2,0
茶聚CHAGE中和福美店｜香片領導品牌_新北手搖飲料店外送外帶加盟推薦 在地美食飲料茶飲創業加盟,4.9,1,冰品飲料店,新北市中和區福美路310號,25.0049413,121.4968425,74,2,46,2,0,1,0,17,3,8,0
TEA TOP第一味 中和中和店,4.8,323,冰品飲料店,新北市中和區中和路107號,25.0002875,121.5015709,100,1,85,2,0,2,0,24,3,9,0
TEA'S原味中和廣福店,3.9,101,冰品飲料店,"No. 36, 廣福路中和區新北市235",25.002361,121.5044128,112,3,126,3,1,2,1,18,3,11,0
武林茶文創人文茶飲坊/中和連城店,4.7,103,冰品飲料店,新北市中和區連城路25號,25.0019723,121.4987046,86,1,54,2,0,1,0,21,3,9,0
上宇林頂級茶飲中和連城店,4.5,193,冰品飲料店,新北市中和區連城路43號,25.0017241,121.4982841,89,1,55,2,0,1,0,19,3,10,0
麻古茶坊中和中和店,3.5,171,冰品飲料店,新北市中和區中和路34號,25.0016445,121.4998076,95,1,64,2,0,0,0,22,3,9,0
19.5 TEA新北中和店,4.8,224,冰品飲料店,新北市中和區中山路二段479號,25.0048251,121.4829653,86,3,82,1,1,2,0,14,2,9,0
涼夏冰品||||黑糖|豆花|嫩仙草|剉冰|冰沙|甜品|古早味鳳梨冰|清涼|解渴|中和|永和,4.9,91,冰品飲料店,新北市中和區連城路23巷3號,25.001805,121.4991488,86,1,57,2,0,1,0,22,3,9,0
無飲中和店,4.4,136,冰品飲料店,新北市中和區南山路14號,24.9984844,121.5019735,105,1,99,2,0,1,0,19,3,8,0
一只小芋圓-中和景新店｜人氣飲料｜網紅甜品｜寵物友善｜手工仙草｜黑糖刨冰｜芋圓地瓜圓｜超大杯,4.9,130,冰品飲料店,新北市中和區景新街230之4號,24.9941745,121.5084147,98,1,143,0,0,4,1,14,7,4,0
可不可熟成紅茶-中和福祥店,3.3,61,冰品飲料店,新北市中和區福祥路5號,25.002986,121.499346,86,2,53,2,0,1,0,20,3,9,0
友町冰品-中和店,4.9,65,冰品飲料店,新北市中和區莊敬路49巷20弄8號1樓,25.0058749,121.5019971,92,2,71,2,1,1,0,25,4,12,0
COMEBUY(中和中安店),4.1,182,冰品飲料店,新北市中和區中安街76號,25.0020554,121.5123007,113,4,159,1,1,1,1,30,8,18,0
日出客棧茶飲-小農鮮奶/日出紅茶/紅茶拿鐵 (中和店),4.8,104,冰品飲料店,新北市中和區信義街69號,24.987978,121.5117216,92,1,99,0,0,3,1,8,6,0,0
Hashtea 井製茶飲,4.6,126,冰品飲料店,新北市中和區景安路179號,24.9940661,121.5051631,95,2,127,0,0,2,1,11,5,6,0
功夫茶 KUNGFUTEA 中和中和店,4.8,287,珍珠奶茶,新北市中和區中和路115號,25.0002512,121.5016934,98,1,86,2,0,2,0,24,3,9,0
CoCo都可 中和連勝店,3.8,114,冰品飲料店,新北市中和區連勝街9號,24.9984281,121.499,108,1,75,3,0,1,0,16,2,9,0
COMEBUY_中和中山店,4.1,353,冰品飲料店,新北市中和區中山路二段276號,25.0025416,121.4964935,83,2,59,2,0,1,0,16,2,12,0
Drink Store水雲朵中和南勢角店,3.7,310,冰品飲料店,新北市中和區景新街408號,24.9893256,121.5126222,90,1,108,0,0,3,1,11,4,0,0
一手私藏世界紅茶 中和遠東店,4.5,44,冰品飲料店,新北市中和區建一路160號1樓,24.9980686,121.4874691,92,4,76,1,0,2,0,6,4,12,0
杯塔MyBeta創意飲品商行,4.4,42,冰品飲料店,新北市中和區連城路347巷1弄2號,24.9957316,121.4882782,84,3,72,1,0,1,0,6,3,15,0
迷客夏Milksha 新北中和店,3.3,364,冰品飲料店,新北市中和區員山路136號,24.9964114,121.4812872,66,2,68,0,0,0,0,7,5,13,0
CoCo都可 中和福美店,4.4,123,冰品飲料店,新北市中和區福美路240號,25.0053067,121.4987831,76,4,49,2,1,1,0,20,3,8,0
母女大聯盟心黑飲料店,4.3,40,冰品飲料店,新北市中和區錦和路362號,24.9913043,121.4906212,59,2,41,1,0,1,0,6,2,14,0
找茶drinks,3.8,14,冰品飲料店,新北市中和區錦和路169號,24.9914078,121.490805,60,2,41,1,0,1,0,6,2,14,0
茶二坊 斯里蘭卡 台灣 茶飲專門,4.9,226,冰品飲料店,新北市建一路170-2號F棟中庭遠東世紀廣場1樓,24.99769,121.4874786,90,4,75,1,0,2,0,6,4,13,0
珍煮丹 中和連城店,3.4,291,冰品飲料店,新北市中和區連城路17號,25.0021161,121.4989568,86,1,55,2,0,1,0,21,3,9,0
茶鬍 Beard Cup 中和泰和店,4.7,101,冰品飲料店,新北市中和區泰和街23號,25.0001809,121.4994506,98,1,72,2,0,1,0,23,2,7,0
寶島紅茶冰中和廣福店,4.6,20,冰品飲料店,新北市中和區廣福路76號,25.0016683,121.5030422,110,3,107,3,1,2,0,21,3,12,0
拾?茶屋 中和永貞店,4.7,407,冰品飲料店,新北市中和區永貞路280號,25.0038238,121.5133713,116,4,171,2,1,1,1,35,11,21,0
功夫茶 KUNGFUTEA 中和遠東世紀店,4.7,181,冰品飲料店,新北市中和區中正路736號,24.997778,121.4857448,80,3,69,2,0,2,0,7,5,15,0
CoCo都可 景安店,3.7,187,冰品飲料店,新北市中和區景安路154號,24.9930879,121.5047158,96,1,119,0,0,2,1,12,5,3,0
清心福全中和橋和店-珍珠奶茶手搖飲料專賣店,3.4,357,冰品飲料店,新北市中和區橋和路105號1樓,25.0056998,121.4909111,67,2,43,1,0,2,0,13,0,10,0
戀鮮乳中和店,4.3,146,冰品飲料店,新北市中和區保健路27之1號,24.9979872,121.5086082,116,0,141,2,0,3,1,26,3,9,0
巷內綠豆饌,4.6,98,冰品飲料店,新北市中和區新興街15巷2號,25.0026739,121.5122107,117,4,155,1,1,1,1,32,8,21,0
康青龍創意茶飲_中和景安店,4.1,78,冰品飲料店,新北市中和區景安路145號1樓,24.9953452,121.5055363,104,2,135,1,0,3,1,12,4,7,0
COMEBUY_中和宜安店,3.6,257,冰品飲料店,新北市中和區安平路94號1樓,24.9969224,121.5113937,110,1,162,1,0,4,1,23,5,7,0
阿華冰室,0.0,0,冰品飲料店,新北市中和區中和路400巷13號,25.0024404,121.5115241,117,4,161,2,1,1,1,32,8,18,0
王一大飲料店,4.5,15,冰品飲料店,新北市中和區員山路527號,25.0069982,121.4795932,94,3,74,1,1,1,0,19,4,10,0
藥膳排骨/北極冰鑽冰品店,4.4,49,冰品飲料店,新北市中和區福美路298之1號,25.0050526,121.4972267,72,2,48,2,0,1,0,17,3,8,0
李記古味紅茶冰（中和華中店）,3.4,56,冰品飲料店,新北市中和區福美路318號,25.0047954,121.4965748,75,2,46,2,0,1,0,15,3,8,0
永貞新村紅茶冰X甜甜圈-中和仁愛,4.5,64,冰品飲料店,新北市中和區仁愛街49號,24.9881585,121.5112248,92,1,104,0,0,3,1,9,7,0,0
原味穀舞-中和宜安店,4.4,72,冰品飲料店,新北市中和區宜安路145號,24.9985863,121.5091129,115,0,139,2,0,3,1,24,4,10,0
先喝道中和連城店,4.8,32,冰品飲料店,新北市中和區連城路353號,24.9960482,121.4879015,85,3,73,1,0,2,0,6,3,14,0
進發家-中和復興店 飲料店,4.2,246,珍珠奶茶,新北市中和區復興路75號,24.9901065,121.5036515,92,1,96,0,0,2,1,10,3,2,0
非常找茶鮮果茶飲 中和新生店,4.0,56,冰品飲料店,新北市中和區新生街194號,24.9993787,121.4836239,79,3,73,1,0,1,0,9,3,14,0
可不可熟成紅茶-中和景新店,3.6,122,冰品飲料店,新北市中和區景新街427號,24.9891084,121.5129479,88,1,106,0,0,3,1,10,4,0,0
可不可熟成紅茶-中和民樂店,3.8,294,冰品飲料店,新北市中和區民樂路2-1號,25.0010362,121.4815257,86,4,95,1,1,2,0,7,4,11,0
五桐號WooTea新北中和環球店,4.9,67,冰品飲料店,新北市中和區中山路三段101號,25.0057506,121.4750862,91,2,74,1,1,1,0,17,5,16,0
980D呷飽飲茶 中和建一店,4.3,7,冰品飲料店,新北市中和區建一路183號,24.9980154,121.4883672,94,4,80,1,0,2,0,7,3,13,0
清心福全中和連城店-珍珠奶茶手搖飲料專賣店,3.5,75,冰品飲料店,新北市中和區連城路315之1號1 樓,24.996105,121.4894075,90,3,61,1,0,2,0,7,3,14,0
白巷子中和民享店,4.0,134,冰品飲料店,新北市中和區民享街86巷1號1樓,25.0008144,121.4743924,76,1,79,1,1,0,0,14,5,7,0
可不可熟成紅茶-中和景安店,3.4,115,冰品飲料店,新北市中和區景安路191號,24.992961,121.5049851,100,1,118,0,0,2,1,12,5,3,0
茶湯會,3.1,210,冰品飲料店,新北市中和區新生街213號,24.999636,121.4838809,80,3,77,1,0,2,0,9,3,14,0
三年五班黑糖珍珠鋪-中和安平店,4.2,374,冰品飲料店,新北市中和區安平路100號,24.9972414,121.511623,111,1,157,1,0,4,1,22,6,7,0
曼士茶Manstea-中和連城店,3.9,37,冰品飲料店,新北市中和區連城路381-2號,24.9960809,121.4868539,80,3,72,1,0,1,0,5,5,12,0
珍甜蜜飲品,4.8,33,冰品飲料店,新北市中和區新生街14號,25.0043782,121.4830385,88,3,86,1,1,2,0,14,2,12,0
佐日光茶館 景安店,4.0,110,冰品飲料店,新北市中和區景平路502之2號,24.9937197,121.5039949,96,2,109,0,0,2,1,10,4,4,0
四季紅茶冰 民享店,4.1,49,冰品飲料店,新北市中和區民享街52號,25.0024915,121.4739336,80,2,73,1,1,0,0,16,7,7,0
CoCo都可 中和員山店,4.2,285,冰品飲料店,新北市中和區員山路339號,25.001604,121.481177,90,4,95,1,1,2,0,9,4,11,0
七盞茶 中和南華店,4.5,159,冰品飲料店,新北市中和區南華路4號,24.9953556,121.5022257,96,1,83,3,0,2,0,11,3,5,0
燒等一夏Ciao ice-中和冰店 中和芝麻湯圓 中和紅豆湯 永安市場冰店 燒仙草 四號公園冰店,4.7,111,冰品飲料店,新北市中和區安平路186號,24.9989869,121.5131495,109,0,137,1,0,2,0,24,8,16,0
泰汲～手工泰式奶茶,4.9,139,冰品飲料店,新北市中和區員山路324號,25.0031693,121.4812766,96,4,89,1,1,2,0,10,2,8,0
50嵐 中和員山店,3.4,82,冰品飲料店,新北市中和區員山路325-2號,25.0009211,121.4811009,87,4,93,1,1,2,0,9,5,11,0
好喝吧Drink Bar 台灣好茶專賣,4.9,21,冰品飲料店,新北市中和區建八路130-4號,24.9984854,121.4888199,98,4,81,1,0,2,0,7,3,13,0
特旺紅茶屋,4.5,28,冰品飲料店,新北市中和區圓通路321-5號,24.9906801,121.4926065,50,2,35,1,0,1,0,8,3,14,0
好了啦紅茶冰-中和立德店,5.0,11,冰品飲料店,新北市中和區立德街23號,25.0072427,121.488608,64,2,37,1,0,2,0,13,0,5,0
老賴茶棧中和南勢角店,3.9,164,冰品飲料店,新北市中和區興南路一段92號,24.9891574,121.5098856,92,1,109,0,0,3,1,12,7,0,0
茶之漾中和環球店｜茶葉、禮盒販售｜買五送一,4.6,43,冰品飲料店,新北市中和區中山路三段139號1樓,25.0060298,121.474034,93,2,72,1,1,1,0,19,5,16,0
唐棉茶飲-中和莒光店,3.6,71,冰品飲料店,新北市中和區莒光路94號,25.0024619,121.4722454,81,2,82,1,1,0,0,22,6,12,0
五桐號WooTEA中和員山店,4.6,109,冰品飲料店,新北市中和區員山路246號,25.0013865,121.4814285,89,4,95,1,1,2,0,8,4,11,0
Tea's原味 中和員山店,4.6,117,冰品飲料店,新北市中和區員山路460號,25.0063079,121.4800281,95,3,76,1,1,1,0,17,3,10,0
CoCo都可 德光店,4.2,242,冰品飲料店,新北市中和區德光路93號,25.0034848,121.4689887,92,13,89,2,1,0,0,22,5,16,0
唐棉中和民德店,3.5,63,冰品飲料店,新北市中和區民德路146巷2號,25.0004282,121.4686575,90,3,72,2,1,0,0,25,4,12,0
黑丸嫩仙草(門市）-中和中正店,4.1,349,冰品飲料店,新北市中和區中正路214號,24.9940484,121.4966805,91,1,71,2,0,2,0,10,3,15,0
一青苑手工茶殿 中和員山店,4.5,99,冰品飲料店,新北市中和區員山路115號,24.9952733,121.4808208,59,2,63,0,0,0,0,6,5,13,0
約翰紅茶公司,4.3,359,冰品飲料店,新北市中和區興南路一段88號,24.9892857,121.5098827,91,1,109,0,0,3,1,12,7,0,0
福豆養生豆奶 Fudou Soy Milk,4.6,13,冰品飲料店,新北市中和區莊敬路49巷10弄8號,25.0055299,121.5018297,92,2,70,2,1,0,0,25,4,11,0
好了啦超大杯紅茶冰,2.7,3,冰品飲料店,新北市中和區民安街15號,25.0006444,121.480559,88,4,93,1,1,1,0,9,5,11,0
Chatime日出茶太-Global Mall環球新北中和,4.6,579,冰品飲料店,新北市中和區中山路三段122號3樓,25.006673,121.474779,97,2,74,1,1,2,0,17,5,17,0
d? day茶日 連城店,4.5,87,冰品飲料店,新北市中和區連城路359號,24.9960491,121.4876815,84,3,73,1,0,2,0,6,4,14,0
COMEBUY_中和遠東廣場,3.8,23,冰品飲料店,新北市中和區建八路2號一樓A戶,24.9982769,121.4862231,80,3,72,2,0,1,0,7,5,14,0
50嵐 中和環球店,3.7,334,冰品飲料店,新北市中和區中山路三段113號,25.0058966,121.4747283,94,2,73,1,1,1,0,18,5,17,0
萬波島嶼紅茶中和民樂店,3.0,22,冰品飲料店,新北市中和區民樂路6號,25.0010574,121.4820145,87,4,95,1,1,2,0,7,4,10,0
?研,5.0,59,冰品飲料店,新北市中和區中板路16號,25.011755,121.4841373,70,1,44,1,0,2,0,15,1,8,0
好韻茶堂（手搖飲料）,3.9,16,冰品飲料店,新北市中和區華福街10號,24.9966733,121.4658067,85,2,62,2,0,0,0,18,5,7,0
清心福全圓通店-珍珠奶茶手搖飲料專賣店,2.7,119,冰品飲料店,新北市中和區圓通路256號,24.9910197,121.4933546,56,2,37,1,0,1,0,8,3,15,0
紅茶洋行（中和秀朗店）,4.5,40,冰品飲料店,新北市中和區秀朗路三段128巷1弄2號,24.9922809,121.5245135,59,1,33,0,0,3,0,13,3,5,0
CoCo都可 永安市場店,3.5,236,冰品飲料店,新北市永和區中和路523號,25.0028456,121.5110729,114,4,162,2,1,1,1,32,7,21,0
COMEBUY_中和民享店,3.7,52,冰品飲料店,新北市中和區民享街43號,25.002971,121.4740719,79,2,72,1,1,0,0,17,6,11,0
老賴茶棧中和員山店,3.9,142,冰品飲料店,新北市中和區民安街14號,25.0008499,121.480535,89,4,93,1,1,1,0,9,5,11,0
50嵐 景安店,3.2,48,冰品飲料店,新北市中和區景安路181號,24.9932398,121.5050186,99,1,120,0,0,2,1,12,6,4,0
鮮茶道中和員山店,4.0,110,冰品飲料店,新北市中和區員山路240號1樓,25.0012975,121.4813661,87,4,95,1,1,2,0,8,4,11,0
晴喜摘 中和環球店,4.8,260,冰品飲料店,新北市中和區中山路三段121號,25.0059629,121.4744501,93,2,73,1,1,1,0,18,5,17,0
COMEBUY_中和民安店,3.9,82,冰品飲料店,新北市中和區民安街6號,25.0009819,121.4807002,89,4,93,1,1,1,0,9,5,11,0
清心福全,2.4,117,冰品飲料店,新北市中和區德光路95號,25.0032914,121.4685527,90,15,99,2,1,0,0,22,5,16,0
Mr.Wish 中和環球店,4.0,108,冰品飲料店,新北市中和區中山路三段188號1樓,25.0065591,121.4721665,101,19,66,1,2,1,0,23,6,16,0
溫韻珈琲,0.0,0,冰品飲料店,新北市中和區民生街85巷6弄2號,25.0041246,121.469106,94,14,100,2,1,0,0,24,5,17,0
50嵐 中和園區店,2.9,177,冰品飲料店,新北市中和區連城路336號,24.9958673,121.4830317,66,2,68,0,0,0,0,7,5,14,0
久仰大茗,4.7,39,冰品飲料店,新北市中和區員山路474號,25.0066709,121.4799206,96,3,74,1,1,1,0,17,4,10,0
COMEBUY_中和環球,5.0,397,冰品飲料店,新北市中和區中山路三段100號,25.0057784,121.4771586,96,1,77,1,1,1,0,16,6,14,0
富萃銀品 養生甜湯 飲品,5.0,8,冰品飲料店,新北市中和區新生街120號之2,25.0015511,121.4834477,90,3,87,1,0,2,0,8,3,10,0
Futi Fudi 果滴滴 中和環球店,2.7,7,冰品飲料店,新北市中和區中山路三段122號3F,25.0066724,121.4747789,97,2,74,1,1,2,0,17,5,17,0
可不可熟成紅茶-永和永安市場店,3.9,126,冰品飲料店,新北市永和區中和路491號,25.0021903,121.5105277,114,4,168,2,1,1,1,33,7,16,0
似曾相識飲料&蔥抓餅,5.0,112,冰品飲料店,新北市中和區南山路47號,24.998584,121.5021483,107,1,99,2,0,2,0,20,3,9,0
萃茶風,4.6,426,冰品飲料店,新北市中和區連城路347巷2弄5號,24.9957832,121.4879592,83,3,72,1,0,1,0,6,3,15,0
浪花丸?????和分?,5.0,1,冰品飲料店,新北市中和區新興街6巷12號1樓,25.0024878,121.511884,117,4,159,2,1,1,1,32,8,19,0
楠山冰屋/杏仁茶/燒仙草/紅豆湯/花生湯/燒麻糬/刨冰四季供應/豆花/烘爐地麻糬/中和/永和/雙和,3.9,156,冰品飲料店,新北市中和區和平街114號,24.9916526,121.507006,101,1,112,0,0,3,1,9,5,2,0
逢甲阿郎鹽酥雞?小張茶舖-中和中興店,4.2,192,冰品飲料店,新北市中和區中興街165號,24.9907808,121.5000628,78,1,56,1,0,3,0,9,2,5,0
芋仙珍味,4.7,39,冰品飲料店,新北市中和區新生街256號1樓,24.997455,121.483634,65,2,69,1,0,0,0,7,4,13,0
馬蔥餅 馬祖奶茶 中和中原店,4.9,39,無酒精飲料店,新北市中和區板南路518號,25.0085731,121.483675,72,3,58,1,1,2,0,16,1,8,0
黑砂糖剉冰,3.9,95,冰品飲料店,新北市中和區新生街23號,25.0039038,121.4833621,88,4,90,1,1,2,0,11,2,12,0
綠豆先生 中和店,4.4,25,冰品飲料店,新北市中和區立德街15號,25.0068653,121.4890904,61,2,43,1,0,2,0,13,0,5,0
好了啦-中和新生店,0.0,0,冰品飲料店,新北市中和區新生街192號,24.9994479,121.4836633,79,3,74,1,0,2,0,9,3,14,0
Coco都可中和建一店,5.0,164,冰品飲料店,新北市中和區建一路157號,24.9992619,121.4883202,89,4,74,1,0,1,0,8,3,14,0
麻古茶坊中和員山店,3.3,156,冰品飲料店,新北市中和區員山路293號,25.0000399,121.4811976,89,4,93,1,1,1,0,9,5,13,0
能量青草茶,5.0,9,冰品飲料店,新北市中和區新生街214號,24.9987977,121.4837403,81,3,70,1,0,1,0,9,3,14,0
黛黛茶 DailyDae新北板橋店-歐風水果紅茶,4.5,69,冰品飲料店,新北市板橋區三民路二段139號,25.0152034,121.4793863,80,1,48,0,0,2,0,19,4,11,0
C.up C+ 嘻樂杯子,0.0,0,冰品飲料店,新北市中和區中正路797號,25.0004741,121.4847551,82,3,76,1,0,2,0,9,3,14,0
二水町 涼心事業 冰品專門店/板橋豆花/板橋剉冰/板橋冰品/板橋熱甜湯,4.6,452,冰品飲料店,新北市板橋區中山路二段85號,25.0159669,121.473992,87,8,81,2,1,1,0,24,5,19,0
涼水庫民安店,3.3,9,冰品飲料店,新北市中和區民安街5號,25.000777,121.480821,88,4,93,1,1,1,0,9,5,11,0
曾冰製湯圓冰品研製所,4.2,77,冰品飲料店,新北市中和區員山路252號,25.0015795,121.4814235,91,4,95,1,1,2,0,8,4,11,0
解渴飲料店 (G treeda),5.0,1,冰品飲料店,新北市板橋區長安街218號1 樓,25.0122464,121.4748069,97,9,79,1,2,1,0,21,5,19,0
TeaTop第一味 板橋中山店,4.3,134,冰品飲料店,新北市板橋區中山路二段244號,25.0181265,121.4785652,79,1,51,0,0,1,0,23,4,16,0
先喝道板橋中山店,4.0,155,冰品飲料店,新北市板橋區中山路二段136號,25.0169256,121.4764037,85,3,66,0,1,1,0,21,5,15,0
李記紅茶冰,3.0,3,冰品飲料店,新北市板橋區中山路二段412巷9號,25.0206134,121.4832353,52,1,43,0,0,0,0,19,3,7,0
玉仙森仙草愛玉茶飲,4.7,19,冰品飲料店,新北市板橋區中山路二段195號,25.0171243,121.4764558,87,3,69,0,1,1,0,21,5,15,0
麻古茶坊板橋中山店,3.9,529,冰品飲料店,新北市板橋區中山路二段110號,25.016606,121.475923,88,8,69,0,1,1,0,21,6,19,0
一沐日 板橋三民店,3.6,569,冰品飲料店,新北市板橋區三民路二段19號,25.018249,121.479475,77,1,45,0,0,1,0,24,4,13,0
好口味傳統甜品,2.7,9,冰品飲料店,新北市中和區民安街28號,25.0006709,121.4802391,90,3,93,1,1,1,0,9,5,11,0
五桐號WooTea 新北板橋埔墘店,3.2,218,冰品飲料店,新北市板橋區中山路二段167號,25.0168904,121.4758901,87,8,74,0,1,1,0,21,5,18,0
康青龍 板橋正隆店 飲料外送,4.3,65,冰品飲料店,新北市板橋區板新路9之1號,25.0125071,121.4753846,100,9,79,1,2,1,0,22,5,19,0
麻古茶坊 新北新莊中原店,4.2,535,冰品飲料店,新北市新莊區中原路149號,25.0542355,121.4540079,81,14,100,0,2,2,0,17,6,3,0
迷客夏Milksha 新北中原店,3.3,301,冰品飲料店,新北市新莊區中原路139號,25.0542544,121.4543764,78,14,98,0,2,2,0,17,6,3,0
清心福全中原店-珍珠奶茶手搖飲料專賣店,3.4,160,冰品飲料店,新北市新莊區中原路337號,25.054291,121.4454664,68,11,64,0,2,0,0,7,4,5,0
50嵐 台北縣總店,3.6,257,冰品飲料店,新北市板橋區中山路二段159號,25.0167415,121.4757522,87,8,73,0,1,1,0,21,6,18,0
清心福全冷飲站 板橋三民店-珍珠奶茶手搖飲料專賣店,3.4,114,冰品飲料店,新北市板橋區三民路二段102巷1號,25.0167249,121.478995,77,1,44,0,0,1,0,23,3,13,0
沁幸經典手搖飲專賣店,4.6,131,冰品飲料店,新北市新莊區中和街95號,25.0481105,121.4472557,92,7,105,0,1,0,0,12,8,13,0
My茶吧飲品專賣店,4.6,37,冰品飲料店,新北市新莊區中和街179號,25.0506539,121.447725,88,9,98,0,1,0,0,12,7,3,0
海森食品有限公司-食品批發零售 冷凍食品批發零售 牛軋糖批發 果乾批發零售 果露批發零售 果醬批發零售 新北年菜 年菜推薦2024,4.4,68,冰品飲料店,新北市中和區中山路二段600號,25.0053671,121.4818878,92,3,76,1,1,2,0,14,2,8,0
哈根達斯 中和環球店,3.1,79,冰品飲料店,新北市中和區中山路三段122號號3樓,25.0066732,121.4747785,97,2,74,1,1,2,0,17,5,17,0
淘汽小姐 Naughty Lady_(歐姆蕾爆乳捲、氣泡飲、甜點、客製化飲品、外送服務),4.4,543,冰品飲料店,新北市中和區景平路431巷110號,24.9950247,121.5005323,98,1,76,3,0,1,0,11,4,5,0
默沫手作飲品 板橋四維店,4.8,313,冰品飲料店,新北市板橋區四維路188號,25.0269109,121.4643291,67,2,123,3,0,3,1,14,4,22,0
何家甜品鋪,4.3,1,冰品飲料店,新北市板橋區三民路二段203之3號,25.0135997,121.4793177,89,2,65,1,1,2,0,20,4,14,0
月半星球｜金賞獎??白玉鍋煮厚奶茶｜冰沙奶蓋｜中和板橋飲料｜,4.8,244,冰品飲料店,新北市中和區民有街4號,25.0057423,121.4754669,92,2,75,1,1,1,0,18,6,16,0
好了啦超大杯紅茶冰－中和民富店,4.0,4,冰品飲料店,新北市中和區民富街14號,25.0063187,121.4770572,90,1,76,1,1,1,0,17,4,15,0
夏日冰沙-綠豆沙專賣店,0.0,0,冰品飲料店,新北市中和區建八路20-1號,24.9985057,121.4870355,84,4,73,2,0,2,0,8,4,14,0
Do 飲冰區,3.0,1,冰品飲料店,新北市中和區民安街21號,25.000535,121.480466,87,3,93,1,1,1,0,9,5,11,0
禮采芙-永安市場店-永和特色茶飲|必喝飲料|熱門飲料|人氣飲料|奶蓋首選|在地推薦飲料,4.7,221,冰品飲料店,新北市永和區中和路469號1樓,25.0017362,121.5100911,117,3,166,2,1,1,1,31,7,16,0
泰國·遇泰式奶茶專賣店(四號公園店),4.4,112,冰品飲料店,新北市中和區中安街72號,25.0021316,121.512368,114,4,157,1,1,1,1,30,8,18,0
鶴茶樓- 鶴頂紅茶商店(中和永安店),4.2,516,珍珠奶茶,新北市中和區中安街42號1樓,25.002715,121.5129111,112,4,159,1,1,1,1,33,9,19,0
北投紅茶,3.6,36,無酒精飲料店,新北市永和區中和路493-1號,25.0022289,121.5105623,114,4,168,2,1,1,1,33,7,16,0
恩宇家-綠豆沙古早味飲品,4.7,207,冰品飲料店,新北市永和區秀朗路一段104號,25.0039507,121.5166142,116,3,182,2,0,1,1,33,7,23,0
台東山水咖啡,0.0,0,冰品飲料店,新北市中和區中安街120號1樓,25.0006761,121.5110963,108,3,162,2,1,2,1,27,6,13,0
自己來紅茶鮮乳 永和店,4.2,10,冰品飲料店,新北市永和區永和路一段112之1號,25.007382,121.5135818,125,4,170,2,1,2,1,32,12,19,0
鮮饗茶GOTCHA-永和店,4.4,185,冰品飲料店,新北市永和區中正路3號1樓,24.9955173,121.513828,111,1,146,1,0,4,1,20,5,8,0
得正#永和樂華計劃,4.0,359,冰品飲料店,新北市永和區保平路21號,25.0074705,121.5126882,123,4,166,2,1,2,1,34,11,20,0
金茶伍手作飲品-永和保平門市 woo cha tea shop,4.7,391,冰品飲料店,新北市永和區保平路25號,25.007309,121.5125138,122,4,168,2,1,2,1,32,10,21,0
閑茗樓 永和店,4.4,766,冰品飲料店,新北市永和區福和路247號,25.0073643,121.5181044,116,3,160,2,0,2,1,31,9,22,0
老賴茶棧永和樂華店,4.3,85,冰品飲料店,新北市永和區保平路19號,25.0074486,121.5127363,123,4,166,2,1,2,1,34,11,20,0
李記紅茶永和中正店,4.6,27,冰品飲料店,新北市永和區中正路5號,24.9955194,121.5138466,111,1,146,1,0,4,1,20,5,8,0
結幸堂,4.6,55,冰品飲料店,新北市中和區中安街58號,25.0023831,121.5125859,114,4,157,1,1,1,1,31,9,20,0
樂樂冰沙 LE DRINK,4.9,7,冰品飲料店,新北市中和區保平路372號,25.0034267,121.5062011,117,2,150,3,1,1,1,23,4,13,0
再睡5分鐘 - 新北樂華店,4.8,1,冰品飲料店,新北市永和區永和路一段158號,25.0084405,121.514136,121,4,168,2,1,2,1,36,12,18,0
清心福全 永和宜安店-珍珠奶茶手搖飲料專賣店,4.1,133,冰品飲料店,新北市永和區中正路15號,24.9956694,121.5140024,108,1,152,1,0,4,1,19,5,8,0
五桐號WooTea 新北永和樂華店,3.9,268,冰品飲料店,新北市永和區永和路一段150號,25.0083639,121.514238,121,4,168,2,1,2,1,36,12,18,0
一手私藏世界紅茶 永和中正店,4.2,257,冰品飲料店,新北市永和區中正路511號,25.0071046,121.516879,126,5,168,2,1,2,1,32,9,22,0
良古早味黑糖剉冰,3.9,761,冰品飲料店,新北市永和區安樂路232號,25.002531,121.5149944,117,5,174,1,1,1,1,34,8,24,0
CoCo都可 永和中正店,3.8,172,冰品飲料店,新北市永和區中正路184號,24.9968977,121.5154481,105,1,131,1,0,3,1,23,7,11,0
李記古味紅茶冰（中和華中店）,3.4,56,冰品飲料店,沒有地址,25.0047954,121.4965748,75,2,46,2,0,1,0,15,3,8,0
烏弄原生茶飲（永和樂華店）,3.6,168,冰品飲料店,新北市永和區保平路18巷1-1號號,25.0076501,121.5123879,121,4,165,2,1,2,1,36,11,19,0
一點甜 甜品店,4.8,91,冰品飲料店,新北市永和區安樂路202號,25.0018873,121.5151889,115,3,170,1,0,1,1,32,9,22,0
好實在冰品店,4.6,108,冰品飲料店,新北市中和區宜安路63號一樓,24.996923,121.51142,111,1,162,1,0,4,1,23,5,7,0
三分春色 永和樂華店,4.9,314,冰品飲料店,新北市永和區永和路一段180號,25.008968,121.5143777,118,4,162,2,1,2,1,38,12,18,0
鬆苑比利時鬆餅Waffle Yard,4.9,34,冰品飲料店,新北市中和區永貞路239巷5號,25.0034054,121.5127158,111,4,164,1,1,1,1,34,9,21,0
迷客夏Milksha 新北永和樂華店,2.8,50,冰品飲料店,新北市永和區保平路24號,25.0075978,121.5122228,121,4,164,2,1,2,1,36,10,19,0
同班同學 Teaschool,4.5,99,冰品飲料店,新北市永和區福和路326號,25.0073463,121.5155591,128,5,169,2,1,2,1,34,10,21,0
雅淳水果茶-樂華店,5.0,1,冰品飲料店,新北市永和區永平路192號,25.0094739,121.510309,107,4,149,2,1,2,1,41,7,18,0
鱷油手工現洗愛玉,4.7,19,冰品飲料店,新北市永和區永平路164號號前,25.0089119,121.5109143,118,4,158,2,1,2,1,41,8,18,0
超前部暑—冰城,4.8,239,冰品飲料店,新北市永和區安樂路226號,25.0023868,121.5150243,121,5,173,1,1,1,1,33,8,24,0
椰太泰?摩摩渣渣｜椰奶西米露?,5.0,3,冰品飲料店,新北市永和區永平路7號1樓,25.0086721,121.513838,116,4,165,2,1,2,1,39,12,18,0
何家甜品鋪-剉冰雪花冰(永和中正),4.2,522,冰品飲料店,新北市永和區中正路31號,24.9958398,121.5141194,107,1,154,1,0,4,1,20,6,9,0
詩篇 頂溪店 新北永和必喝手搖飲,4.4,105,珍珠奶茶,新北市永和區中興街17號,25.0120634,121.5159426,98,4,127,2,1,1,1,31,10,18,0
木昂手作天然飲品 永和竹林店,4.9,17,冰品飲料店,新北市永和區竹林路185號,25.0095735,121.5206727,88,3,120,1,0,1,1,28,8,20,0
胖妞仙草奶凍,3.4,72,冰品飲料店,新北市永和區永平路28號,25.0088564,121.5130696,115,4,163,2,1,2,1,39,11,17,0
可不可熟成紅茶-永和頂溪店,4.0,601,冰品飲料店,新北市永和區永和路一段125號,25.0083516,121.5138716,120,4,168,2,1,2,1,35,12,18,0
一江春,4.8,108,冰品飲料店,新北市永和區智光街44號,24.998083,121.5170723,115,1,119,1,0,2,0,21,7,13,0
77號果汁飲料,5.0,1,冰品飲料店,新北市中和區中和路77號,25.001178,121.5008455,96,1,76,2,0,1,0,24,3,10,0
糖舖挫冰,4.1,34,冰品飲料店,新北市中和區保平路269號,25.0041402,121.5069932,112,2,147,3,1,1,1,26,4,14,0
不可不喝 奶昔屋,3.8,180,冰品飲料店,新北市永和區永平路170號,25.0090385,121.5107613,112,4,152,2,1,2,1,41,8,17,0
日出客棧茶飲（永和保安店),4.7,157,冰品飲料店,新北市永和區保安路240號1樓,25.0132284,121.5067984,69,2,84,0,1,1,1,23,4,17,0
芋見幸福大甲芋頭牛奶（永和店）,4.1,22,冰品飲料店,新北市永和區永平路51號,25.0085774,121.5127875,123,4,161,2,1,2,1,40,10,17,0
TEA TOP 第一味(永和永元店）,4.2,178,冰品飲料店,新北市永和區永元路95巷1號,25.0018412,121.5224261,105,4,81,0,0,0,0,22,7,19,0
樂華天下紅茶店,3.4,595,冰品飲料店,新北市永和區永平路171號,25.0088918,121.5105646,115,4,151,2,1,2,1,41,8,17,0
龜記茗品 永和頂溪店,4.1,180,冰品飲料店,新北市永和區永和路二段93號,25.0115515,121.5147422,102,4,135,2,1,1,1,33,9,18,0
清心福全冷飲站秀朗二店,2.8,102,冰品飲料店,新北市永和區得和路107號,25.000321,121.5182942,130,4,137,1,0,2,0,27,8,17,0
幾何茶 GEO TEA | 永和永貞店?鮮奶茶＆果茶專賣,5.0,55,冰品飲料店,新北市永和區永貞路127號,25.0041999,121.517069,118,3,173,2,0,1,1,33,7,23,0
七築冬瓜茶飲專賣店,4.7,81,冰品飲料店,新北市永和區中興街21號,25.0119544,121.5160194,100,4,128,2,1,1,1,31,10,18,0
覓糖Mi Tang 永和中正店,4.7,99,冰品飲料店,新北市永和區中正路39-1號,24.996059,121.5142977,104,1,149,1,0,4,1,20,6,11,0
迷客夏Milksha 新北景新店,3.9,615,冰品飲料店,新北市中和區景新街363號,24.9907438,121.5121752,97,1,115,0,0,3,1,15,4,2,0
冰逗樂,4.0,28,冰品飲料店,新北市永和區永貞路308號,25.0048733,121.5118602,126,4,158,2,1,1,1,32,7,22,0
日蜜蜂禾 HoneyDay蜂蜜飲,5.0,50,冰品飲料店,新北市永和區民光街2號1樓,24.9964382,121.5152279,106,1,142,1,0,3,1,21,6,11,0
北投紅茶-興南店,2.9,104,冰品飲料店,新北市中和區興南路一段55號之2,24.9900613,121.5107577,94,1,115,0,0,3,1,13,5,1,0
芋圓咬一口 永和店,4.4,473,冰品飲料店,新北市永和區永貞路414號,25.0080058,121.5089424,112,4,141,3,1,2,1,37,7,17,0
50嵐 樂華店,3.0,412,冰品飲料店,新北市永和區永和路一段144號,25.0082443,121.5142108,122,4,168,2,1,2,1,36,12,19,0
保平52 黑糖米苔目粉粿冰（冬季燒仙草紅豆湯花生湯）,4.8,134,冰品飲料店,新北市永和區保平路52號,25.007085,121.5112654,126,4,156,2,1,2,1,37,8,18,0
CoCo都可 南華店,4.1,335,冰品飲料店,新北市中和區南山路167號,24.9952731,121.5028889,107,1,94,3,0,2,1,12,3,5,0
大苑子樂華店,3.6,272,冰品飲料店,新北市永和區永和路一段146號,25.0082995,121.5140935,121,4,168,2,1,2,1,36,12,19,0
麻古茶坊中和南勢角店,3.9,317,冰品飲料店,新北市中和區興南路一段41號,24.990452,121.5109997,93,1,117,0,0,3,1,14,5,1,0
狄斯耐冰城,4.4,38,冰品飲料店,新北市永和區保平路268巷35號,25.0061092,121.5076901,114,3,144,2,1,1,1,31,5,19,0
勇伯綠豆沙,3.0,4,冰品飲料店,新北市永和區永平路81巷1號,25.0081864,121.5118857,123,4,160,2,1,2,1,37,9,18,0
Mr.雪腐 (雪花冰/鴨血豆腐),4.5,2,冰品飲料店,新北市永和區得和路2號,25.0007072,121.5147263,118,2,162,1,0,2,1,30,8,19,0
Spade Tea Yonghe Original,4.3,1,冰品飲料店,新北市永和區永貞路230號,25.0040064,121.5149612,116,5,180,2,1,1,1,35,9,22,0
甘蔗汁,2.0,1,冰品飲料店,新北市永和區保福路一段4號,25.0078874,121.5133713,123,4,170,2,1,2,1,36,11,19,0
COMEBUY_中和南華,3.7,58,冰品飲料店,新北市中和區南華路16號,24.99558,121.5027553,104,1,87,3,0,2,0,12,3,5,0
豆韻 豆漿豆花專賣店 中和豆花/永和豆花/新北豆花/中和甜點/永和甜點/中和下午茶/中永和豆花/剉冰/黑糖剉冰/手工豆漿/豆乳,4.4,757,冰品飲料店,新北市中和區安平路218號,24.9999247,121.5139152,115,2,156,1,0,2,1,28,8,17,0
永美雪花冰,4.4,1,冰品飲料店,新北市永和區永平路67號,25.0083752,121.5121454,123,4,159,2,1,2,1,39,10,18,0
清原芋圓 永和得和店,4.1,241,冰品飲料店,新北市永和區得和路103號,25.0004546,121.5182374,128,4,140,1,0,2,0,28,8,18,0
好了啦紅茶冰 中和華夏店,4.7,33,冰品飲料店,新北市中和區華新街152-5號,24.982481,121.5076987,63,1,53,0,0,1,1,4,5,1,0
清心福全中和漢生店-珍珠奶茶手搖飲料專賣店,2.4,37,珍珠奶茶,新北市中和區中山路三段194號,25.0066545,121.4720803,102,19,64,1,2,1,0,23,6,16,0
功夫茶 KUNGFUTEA 中和環球店,4.7,386,珍珠奶茶,新北市中和區中山路三段162號,25.0064259,121.4731303,96,4,64,1,1,1,0,19,5,16,0
五桐號 板橋中山店,3.6,230,冰品飲料店,新北市板橋區中山路一段92號,25.0101145,121.4620917,105,30,150,5,4,2,1,27,5,18,1
甘蔗?媽媽-板橋中山店,3.9,226,冰品飲料店,新北市板橋區中山路一段102-3號,25.0103285,121.4625755,108,30,147,5,4,2,1,26,5,18,1
阿弟仔茶飲果汁冰品,3.8,52,冰品飲料店,新北市中和區景新街410巷42號,24.9887285,121.5116175,95,1,107,0,0,3,1,10,6,0,0
可不可熟成紅茶 板橋中山府中店,3.8,375,冰品飲料店,新北市板橋區中山路一段102-1號,25.0101752,121.4624549,108,30,148,5,4,2,1,26,5,18,1
50嵐 板橋中山二店,3.8,355,冰品飲料店,新北市板橋區中山路一段135號,25.0105744,121.4624245,104,30,150,5,4,2,1,26,5,18,1
萬波島嶼紅茶 Wanpo Tea Shop 永和頂溪店,3.3,192,冰品飲料店,新北市永和區中山路一段6號,25.0105055,121.5142714,110,4,153,2,1,2,1,36,11,20,0
天仁茗茶 環球店,2.6,93,珍珠奶茶,新北市中和區中山路三段122號B2樓,25.0062395,121.4751313,95,2,74,1,1,2,0,18,5,17,0
一手私藏世界紅茶 板橋府中店,3.8,151,冰品飲料店,新北市板橋區中山路一段70號,25.0098781,121.4616794,102,30,147,5,4,2,1,26,5,17,1
巷弄內 波霸珍珠奶茶,4.3,1,冰品飲料店,新北市板橋區中山路一段50巷1弄4號,25.0091883,121.4612942,94,30,145,4,4,2,1,26,5,18,1
大和職茶Yamatocha,4.3,197,冰品飲料店,台北市中山區中山北路一段140巷13號1樓,25.0515173,121.5215043,38,78,196,2,3,4,2,21,8,12,1
珍煮丹府中店,3.5,191,冰品飲料店,新北市板橋區中山路一段29號,25.008869,121.4604822,90,29,144,4,4,2,1,26,4,19,1
綠蓋茶館 誠品板橋店,3.9,48,冰品飲料店,新北市板橋區中山路一段46號2F,25.0088325,121.4607906,89,29,146,4,4,2,1,28,5,19,1
SOMA特調飲品 中山概念店 Tea & Mocktail,3.6,836,冰品飲料店,台北市中山區中山北路二段20巷23號,25.0537538,121.5208166,45,60,165,1,3,3,2,23,8,12,1
白巷子樹林中山店,4.4,83,冰品飲料店,新北市樹林區中山路ㄧ段47號,24.9922999,121.424045,97,15,86,0,1,0,1,16,4,3,1
?十八木．板橋府中門市,3.9,221,冰品飲料店,新北市板橋區中山路一段38號,25.0086654,121.4606238,88,29,145,3,4,2,1,27,5,18,1
抿茶 min cha 中山店,4.4,463,冰品飲料店,台北市中山區中山北路一段140巷10號1樓,25.0514079,121.5213751,39,78,194,2,3,4,2,22,8,12,1
浪花丸?????和分?,5.0,1,冰品飲料店,台北市中山區中山北路一段140巷10號1樓,25.0024878,121.511884,117,4,159,2,1,1,1,32,8,19,0
得正#板橋新民計劃,3.5,282,冰品飲料店,新北市板橋區新民街41號1樓,25.0107128,121.4639293,106,28,134,2,4,3,0,25,5,22,1
先喝道永和秀朗店,4.0,130,冰品飲料店,新北市永和區得和路293號,24.9997684,121.5228105,107,3,77,0,0,0,0,20,8,16,0
板橋阿嬤紅茶,4.7,69,冰品飲料店,新北市板橋區大華街96號,25.0054789,121.4591285,84,20,122,3,3,2,1,26,5,16,0
天仁茗茶 永和店,3.1,232,冰品飲料店,新北市永和區永和路二段234號,25.0144124,121.5158332,67,2,109,1,0,1,1,28,6,22,0
白巷子(雙連店),4.0,292,冰品飲料店,台北市大同區民生西路102號,25.0574113,121.5198195,61,51,180,2,3,5,3,21,15,12,0
豆花匠 傳統原味豆花 嫩仙草,4.0,55,冰品飲料店,新北市中和區華順街121號,24.9965992,121.465372,87,2,61,2,0,0,0,20,5,7,0
北門號綿綿冰專賣店,4.7,212,冰品飲料店,新北市板橋區北門街14號,25.01063,121.4577467,86,27,149,4,3,2,1,25,6,17,1
Leway 樂?本味,4.3,393,冰品飲料店,台北市中山區合江街107號,25.0599206,121.5393262,33,11,118,1,1,3,0,23,5,10,0
烏弄原生茶飲 晴光店,3.8,95,冰品飲料店,"之1號, 雙城街17巷中山區台北市10453",25.0644455,121.5245967,47,7,107,2,0,4,1,23,9,10,0
有料搖搖茶yoyocha,4.5,226,冰品飲料店,台北市大同區鄭州路21巷4號,25.049523,121.5144476,68,81,214,1,3,4,2,20,7,11,1
有飲 Youin 創意飲品-台北伊通店,3.9,289,冰品飲料店,台北市中山區伊通街97號,25.0531794,121.5349488,19,9,130,2,2,3,1,30,7,17,0
茶山人,4.9,350,冰品飲料店,新北市中和區連城路355號,24.9960482,121.4878285,85,3,73,1,0,2,0,6,3,14,0
無飲中山店,4.4,200,冰品飲料店,台北市中山區中山北路一段105巷8號,25.0506357,121.5233852,28,77,154,2,4,5,0,22,10,12,1
黑丸嫩仙草(門市）-中和中正店,4.1,348,冰品飲料店,沒有地址,24.9940484,121.4966805,91,1,71,2,0,2,0,10,3,15,0
谷得好好 品牌總部,3.0,1,冰品飲料店,新北市中和區連城路304號,24.996353,121.48385,68,2,68,0,0,0,0,7,5,14,0
QO手工黑糖粉圓冰 ｜天然手作粉圓冰 遠東世紀廣場好喝飲料下午茶,0.0,0,冰品飲料店,新北市中和區中正路720-3號烏賊食堂,24.9975056,121.485591,79,3,69,2,0,2,0,7,5,14,0
東方洋行 中和圓通店,4.4,18,冰品飲料店,新北市中和區圓通路250號,24.9919896,121.4943566,63,2,44,1,0,1,0,9,3,14,0
布萊恩紅茶 新北中和店,4.2,17,冰品飲料店,新北市中和區連城路403號,24.9960993,121.4860451,77,2,71,1,0,1,0,5,5,13,0
茶好韻飲料店,5.0,4,冰品飲料店,新北市中和區連城路347巷4弄16號,24.9956976,121.4876262,81,3,72,1,0,1,0,6,4,15,0
新北中和店,4.9,8,冰品飲料店,新北市中和區中正路736號1號樓A戶,24.9976407,121.4858173,80,3,69,2,0,2,0,7,5,15,0
小茶齋中和民享店,3.5,86,珍珠奶茶,新北市中和區民享街51號,25.0027096,121.4741834,76,2,73,1,1,0,0,17,6,8,0
一手私藏世界紅茶 中正南昌店,3.7,175,冰品飲料店,台北市中正區南昌路一段73號1樓,25.030923,121.517596,42,5,45,1,0,3,0,8,16,17,0
啾豆綠豆沙飲品裕民店,4.8,81,冰品飲料店,新北市板橋區裕民街54號,25.0287829,121.461339,54,1,77,1,0,2,1,16,5,18,0
980D呷飽飲茶 土城裕民店,4.8,137,冰品飲料店,新北市土城區裕民路137號,24.9864484,121.4516755,75,1,73,2,0,1,0,21,5,12,0
SOMA 特調飲品 永康店,4.1,982,冰品飲料店,沒有地址,25.0332025,121.530154,12,7,74,0,0,2,1,16,9,19,0
仙茶坊 中和興南店,4.5,35,冰品飲料店,新北市中和區興南路二段26號,24.985765,121.507389,75,1,81,0,0,2,1,8,6,0,0
佐日光茶館中和南勢角店,4.9,36,冰品飲料店,新北市中和區興南路一段93巷1號,24.988394,121.5097787,91,1,105,0,0,3,1,11,7,0,0
可立杯,4.5,68,冰品飲料店,新北市中和區興南路二段46號1樓,24.985182,121.5066769,71,1,78,0,0,2,1,7,5,0,0
留校茶看冷熱飲-校長室,4.1,141,冰品飲料店,新北市中和區景新街410巷28號,24.9888944,121.511755,96,1,107,0,0,3,1,10,6,0,0
十丈波紅茶興南店,5.0,23,冰品飲料店,新北市中和區景新街410巷17號,24.9888247,121.5119202,95,1,106,0,0,3,1,9,5,0,0
讚豆GoodDrink綠豆冰沙,5.0,14,冰品飲料店,新北市永和區中興街89號,25.0119238,121.5174275,88,2,126,1,0,1,1,30,11,17,0
黑瀧堂-新北永和頂溪店-,4.1,49,冰品飲料店,新北市永和區中興街14號,25.0118102,121.515864,100,4,131,2,1,1,1,31,11,18,0
武林茶文創人文茶飲坊/永和竹林店,4.5,759,冰品飲料店,新北市永和區竹林路89號,25.0122616,121.5196845,67,3,109,1,0,1,1,28,9,17,0
胖妞,3.1,8,冰品飲料店,新北市永和區福和路76巷5弄2號,25.0085043,121.5228757,79,4,87,1,0,1,0,22,8,19,0
麻古茶坊永和福和店,3.9,176,冰品飲料店,沒有地址,25.0074758,121.5186727,113,3,154,2,0,2,1,31,9,22,0
黑糖杯杯黑糖珍珠鮮奶茶飲專賣店,4.1,13,冰品飲料店,新北市永和區永平路194號,25.0094976,121.5102983,105,4,149,2,1,2,1,41,7,18,0
澄悠西米露,4.2,50,冰品飲料店,新北市永和區信義路126-1號,25.014823,121.5124632,65,4,99,1,1,1,1,31,6,18,0
紅茶巴士 Black Tea Bus - 新北樂華站,4.1,26,冰品飲料店,新北市永和區永平路51號-4號,25.008563,121.512778,123,4,161,2,1,2,1,40,10,17,0
冰殿,3.6,109,冰品飲料店,新北市中和區廣福路110號,25.0013183,121.5023862,107,3,91,3,1,2,0,23,3,11,0
共緬之-緬甸奶茶 ?????????,4.9,182,冰品飲料店,新北市永和區竹林路112號之1號,25.0116846,121.5197565,75,3,118,1,0,1,1,28,10,20,0
50嵐 福和店,3.7,334,冰品飲料店,新北市永和區福和路239號,25.0073483,121.5183179,115,3,159,2,0,2,1,31,9,23,0
清心福全永和樂華店-珍珠奶茶手搖飲料專賣店,3.9,113,冰品飲料店,新北市永和區永和路一段149號,25.009155,121.513978,116,4,161,2,1,2,1,40,12,18,0
COMEBUY_永和頂溪店,3.9,174,冰品飲料店,新北市永和區永和路二段30號,25.0104237,121.514764,110,4,150,2,1,2,1,34,11,19,0
布鹿‧果漾新鮮式Blue deer (永和竹林店),4.1,121,冰品飲料店,新北市永和區竹林路209號,25.0088959,121.5207705,95,3,125,1,0,1,1,27,8,21,0
冰豆綠豆沙-永和樂華店,4.4,40,冰品飲料店,新北市永和區永平路24號對面攤位,25.0087188,121.5133673,115,4,165,2,1,2,1,38,11,18,0
清心福全永和永福店-珍珠奶茶手搖飲料專賣店,3.7,114,冰品飲料店,新北市永和區福和路124號 號,25.0080419,121.5220644,92,3,110,1,0,1,0,23,8,20,0
季緣 CHI YUAN | Authentic Taiwanese Tea | 師大店,4.5,212,冰品飲料店,台北市大安區師大路141號,25.0214519,121.5280722,19,4,80,0,0,3,1,15,8,22,0
紅茶媽媽（永和店）,4.0,68,冰品飲料店,新北市永和區永亨路112號,25.0043476,121.5236659,96,4,67,0,0,0,0,19,6,20,0
TEA TOP第一味 永和竹林店,4.6,155,冰品飲料店,新北市永和區竹林路73號竹林路上，全聯旁邊,25.0134395,121.5186673,64,2,107,1,0,1,1,27,7,20,0
先喝道台北古亭店,4.2,96,冰品飲料店,台北市大安區和平東路一段27號,25.0272703,121.5231632,31,10,105,1,0,4,1,13,10,22,0
桃-1998飲料店,4.5,67,冰品飲料店,台北市中正區中華路二段313巷15號,25.0284419,121.5062473,51,10,42,1,0,2,1,5,14,9,1
陳記九龍城香港茶,2.1,36,冰品飲料店,新北市永和區永平路2-1號,25.0086551,121.513929,117,4,165,2,1,2,1,38,12,18,0
清心福全師大店-珍珠奶茶手搖飲料專賣店,3.5,109,冰品飲料店,台北市大安區師大路108號,25.0220463,121.5281649,21,5,79,0,0,3,1,15,8,21,0
清心福全永和竹林店-珍珠奶茶-手搖飲料-台灣茶,3.5,165,冰品飲料店,新北市永和區竹林路38號,25.0143728,121.5174391,65,2,107,1,0,1,1,29,7,22,0
SOMA 特調飲品 永康店,4.1,983,冰品飲料店,台北市大安區永康街7巷3號,25.0332025,121.530154,12,7,74,0,0,2,1,16,9,19,0
迷客夏臺北師大店,3.3,431,冰品飲料店,台北市大安區師大路45-2號,25.0243684,121.5286511,23,6,87,0,0,2,1,17,11,24,0
有飲 Youin 創意飲品-台北公館店,3.9,391,冰品飲料店,台北市中正區汀州路三段221號,25.014104,121.533866,23,2,43,0,2,2,1,13,8,17,0
可不可熟成紅茶-台北古亭店,3.3,120,冰品飲料店,台北市大安區羅斯福路二段51號,25.0274036,121.5224692,33,10,101,1,0,3,1,14,10,24,0
就飲 JOYING-中正必喝飲品|推薦手搖|特色茶飲|手搖飲推薦|在地推薦飲料店|平價飲料|高cp飲料,5.0,14,冰品飲料店,台北市中正區愛國西路1號B1,25.0369774,121.5145091,60,23,99,2,1,4,0,5,14,8,0
十杯 Spade Tea - 公館店,4.2,893,冰品飲料店,台北市中正區汀州路三段277號,25.0123898,121.5354529,19,2,44,1,2,1,1,12,6,17,0
功夫茶 KUNGFUTEA 中和遠東世紀店,4.7,181,冰品飲料店,沒有地址,24.997778,121.4857448,80,3,69,2,0,2,0,7,5,15,0
好了啦紅茶冰 中和連城店,0.0,0,冰品飲料店,新北市中和區連城路314號,24.996095,121.483378,66,2,68,0,0,0,0,7,5,14,0
保安街泰奶（樂華店）,4.3,15,冰品飲料店,新北市永和區保福路一段10-1號,25.0082024,121.5131304,123,4,164,2,1,2,1,37,10,20,0
石田豆乳,4.7,18,冰品飲料店,新北市中和區員山路148巷22號,24.9970409,121.4819333,65,2,68,1,0,0,0,7,4,13,0
Gathering複合式泡沫紅茶店,5.0,1,珍珠奶茶,新北市中和區安平路60號,24.9958485,121.5105203,106,1,153,1,0,4,1,20,5,6,0
龜記茗品-中和景安店,4.1,139,珍珠奶茶,新北市中和區景平路361號,24.9933141,121.5045348,96,2,118,0,0,2,1,11,5,4,0
CoCo都可 自立店,3.8,256,冰品飲料店,新北市中和區自立路24號,24.9931955,121.5223744,73,1,51,0,0,2,0,14,4,5,0
清原芋圓 中和景新店,4.1,295,冰品飲料店,新北市中和區景新街414號,24.9890532,121.512745,90,1,104,0,0,3,1,10,4,0,0
清原芋圓 中和復興店,3.5,182,冰品飲料店,新北市中和區復興路13號,24.989642,121.5058884,88,1,95,0,0,2,1,9,6,1,0
Different 酪梨大王,3.5,21,冰品飲料店,新北市中和區,24.9904369,121.5082799,95,1,113,0,0,3,1,11,5,1,0
雙雙雪花冰,4.5,15,冰品飲料店,新北市中和區信義街22號,24.9891839,121.5109612,96,1,110,0,0,3,1,11,6,0,0
50嵐 得和店,4.0,156,冰品飲料店,新北市永和區得和路396號,24.9991073,121.5253668,86,2,41,0,0,1,0,15,7,16,0
麻古茶坊永和福和店,3.9,175,冰品飲料店,新北市永和區福和路229之2號1樓,25.0074758,121.5186727,113,3,154,2,0,2,1,31,9,22,0
COMEBUY_永和民生店,3.6,188,冰品飲料店,新北市永和區民生路24號,24.9972511,121.5224702,100,2,67,0,0,2,0,17,7,12,0
龜記茗品-新店佳瑪店,3.9,263,冰品飲料店,"號1樓, No. 268建國路新店區新北市23142",24.9832013,121.5376583,75,2,68,2,0,1,1,14,6,6,0
老賴茶棧板橋莒光店,4.0,94,冰品飲料店,新北市板橋區莒光路7號,25.0249596,121.4697476,72,3,129,2,0,3,1,18,8,21,0
妹子豆製所MEI ZI HANDMADE｜手作鹽滷豆花｜手作燕麥奶,4.3,123,冰品飲料店,新北市新店區安和路三段118號,24.9855323,121.5169235,62,1,59,0,0,3,1,4,3,3,0
五桐號WooTea 台北公館店,4.1,592,冰品飲料店,"號之1, No. 5號之1羅斯福路三段316巷中正區台北市100",25.0156579,121.5322117,22,2,56,0,2,2,1,11,9,12,0
黑丸嫩仙草板橋莊敬店,4.0,440,冰品飲料店,新北市板橋區莊敬路101號,25.02606,121.4725179,75,1,114,1,0,3,0,19,7,18,0
清原芋圓 萬華中華店,4.6,179,冰品飲料店,台北市萬華區中華路二段152號,25.0303258,121.5040304,63,15,80,2,0,2,2,10,15,5,1
喫茶Bar-土城青雲店 鮮果茶 飲料店 手搖杯推薦,4.8,114,冰品飲料店,新北市土城區青雲路263號,24.9805957,121.4592288,74,1,46,1,0,0,0,27,5,12,0
滿月茶作,4.8,157,冰品飲料店,新北市板橋區重慶路206號,25.0026117,121.4625702,97,19,116,3,1,1,1,25,3,10,0
愛玉羽仙草 原愛來愛玉 新店民族店,4.5,184,冰品飲料店,新北市永和區民生路17號,24.9992085,121.5229665,106,2,71,0,0,0,0,20,8,12,0
十分甜品冰品 板橋雙十店,4.5,366,冰品飲料店,新北市板橋區雙十路二段30號,25.0272114,121.4763283,70,1,80,0,0,3,0,21,5,14,0
實記古味紅茶冰,4.3,26,無酒精飲料店,新北市中和區仁愛街85號,24.9871036,121.5116446,84,1,90,0,0,2,1,6,6,0,0
有飲 Youin 創意飲品-台北南陽店,4.4,61,冰品飲料店,台北市中正區南陽街28號,25.0443413,121.516031,59,72,156,2,3,5,0,13,11,9,1
波諦波諦鮮做飲料,4.8,515,冰品飲料店,台北市大同區民生西路198-16號,25.0569716,121.5162151,60,58,166,2,2,4,3,21,13,9,1
一心豪飲 市府店,4.4,540,冰品飲料店,台北市信義區基隆路一段147巷8號,25.042268,121.565951,24,80,100,1,3,2,0,23,7,13,0
1996 台灣茶葉飲品專賣店 錦州店 台北必喝飲料,4.8,122,冰品飲料店,台北市中山區錦州街208號,25.0602747,121.5311338,36,9,148,2,2,3,1,26,6,10,0
紅芯坊飲品專賣店,5.0,26,冰品飲料店,新北市新莊區民安西路77號,25.019618,121.427265,91,8,79,1,1,0,1,11,4,5,0
小胖不減肥新北宏匯店飲料,4.6,289,冰品飲料店,新北市新莊區新北大道四段3號B2,25.0596491,121.449197,56,7,20,0,2,0,0,10,4,3,0
吃豆花,4.7,73,冰品飲料店,新北市永和區永利路66號,25.0048605,121.5193272,114,4,160,2,0,1,1,31,7,25,0
冬仙堂,4.5,453,冰品飲料店,台北市萬華區貴陽街二段112號1樓,25.0399257,121.5027776,79,31,134,2,6,3,2,16,7,3,1
Spade Tea Yonghe Original,4.3,1,冰品飲料店,沒有地址,25.0040064,121.5149612,116,5,180,2,1,1,1,35,9,22,0
SLASH 茶飲新生活 新北中和店,4.9,360,冰品飲料店,新北市中和區莒光路140號,25.0010915,121.4724134,82,2,82,1,1,0,0,19,7,9,0
錨起來喝(台北南陽店),3.3,302,冰品飲料店,台北市中正區南陽街36號,25.0441227,121.5160128,58,63,151,2,3,5,0,14,11,9,1
貢茶 西門武昌店,4.7,411,冰品飲料店,台北市萬華區武昌街二段100號,25.0449735,121.5055642,64,45,120,1,6,2,0,12,4,6,0
阿二冰茶,2.5,116,冰品飲料店,台北市大安區龍泉街56號,25.0237759,121.5293503,22,4,90,0,0,2,1,16,13,21,0
COFFEE.TEA.OR -中山形象店,4.5,1,冰品飲料店,台北市中山區南京西路23巷3號,25.0534,121.520637,44,77,174,1,3,4,2,23,8,12,1
侍茶匠 西門總店,4.4,367,冰品飲料店,台北市萬華區昆明街108號,25.0437691,121.5049374,68,30,134,1,6,2,1,15,5,5,0
黑丸嫩仙草 古亭店,4.3,458,冰品飲料店,台北市中正區同安街65號,25.023817,121.5216567,33,6,71,1,0,2,1,12,8,21,0
毛青茶室 Maochi Tea 松江總店,4.5,642,冰品飲料店,台北市中山區松江路365號1樓,25.0640741,121.5334338,30,8,103,1,0,2,1,19,6,9,0
七盞茶 中山林森北店,4.7,609,冰品飲料店,台北市中山區林森北路302號,25.0558905,121.5252919,34,30,173,2,3,6,1,25,12,11,0
小澤宅宅 台北伊通店,4.0,49,冰品飲料店,台北市中山區伊通街116號,25.0544936,121.5347296,23,8,125,2,2,3,1,30,7,16,0
馬祖新村 台北西門町店,4.3,321,冰品飲料店,台北市萬華區峨眉街10號1樓,25.0433394,121.5076084,76,53,152,1,6,4,0,15,8,5,0
iHERE西門頂級奶茶專家 X 冬仙堂,4.4,416,冰品飲料店,台北市萬華區貴陽街二段112號,25.0398835,121.5028409,79,31,134,2,6,3,2,16,7,3,1
先喝道北車京站店,4.2,514,冰品飲料店,"號 b2, No. 1承德路一段大同區台北市103",25.0493012,121.5171717,61,80,196,2,2,5,2,20,8,9,1
茗萃飲品,4.8,231,冰品飲料店,台北市大同區赤峰街81號,25.0571897,121.5197987,61,51,180,2,3,5,3,21,15,12,0
木衛二 伊通鑄茶所,4.2,1,冰品飲料店,台北市中山區伊通街66巷5-1號,25.0526492,121.534264,17,6,135,1,3,3,1,30,8,17,0
日安喝茶 歐洲無咖啡因茶 花草茶,4.9,309,冰品飲料店,台北市中山區南京西路14號誠品生活南西B1,25.052187,121.5206641,43,78,190,2,3,4,2,23,8,11,1
手工刀削冰(手工粉條冰),4.5,111,冰品飲料店,台北市萬華區興寧街2號,25.0322385,121.5020158,65,16,102,2,0,2,3,22,14,3,1
CHOW CHOW早午餐|下午茶|冰品|氣泡飲|大安厚蛋吐司|人氣冰店|必吃冰店|熱門剉冰|必吃甜品|在地推薦冰店,4.9,42,冰品飲料店,台北市大安區師大路126巷7號1 樓,25.0216759,121.5278441,20,5,79,0,0,3,1,15,8,21,0
可不可熟成紅茶-中正南昌店,3.5,152,冰品飲料店,台北市中正區南昌路一段45號,25.031492,121.5171701,42,5,43,1,0,3,0,8,15,17,0
想點 想?,4.6,56,冰品飲料店,台北市中山區中山北路三段40號大同大學經營餐廳,25.0665801,121.5218296,48,8,88,1,0,5,2,21,13,9,0
澤軒-台北延三店,4.3,26,冰品飲料店,台北市大同區延平北路三段72號,25.0655842,121.5109328,51,10,55,1,0,2,2,14,12,11,0
朱記冰果店,4.6,32,冰品飲料店,新北市中和區復興路280巷3弄13號,24.9908411,121.5016217,81,2,68,1,0,2,1,9,3,3,0
雙春青草茶,4.3,11,冰品飲料店,新北市中和區廟美街75號,25.0011513,121.5008597,97,1,78,2,0,1,0,24,3,10,0
自己來紅茶鮮乳 中和圓通店,5.0,1,冰品飲料店,新北市中和區圓通路269號,24.9930255,121.4959266,76,1,60,1,0,2,0,9,3,15,0
罔市手工粉圓,0.0,0,冰品飲料店,新北市中和區南山路289號,24.9920853,121.5044691,95,1,105,0,0,2,1,10,3,3,0
三重分店青草茶,0.0,0,冰品飲料店,新北市中和區南山路287號,24.9920947,121.5044544,94,1,105,0,0,2,1,10,3,3,0
清心福全中和南工店-珍珠奶茶手搖飲料專賣店,3.0,121,無酒精飲料店,新北市中和區中和路198號,24.9996831,121.5053344,113,3,125,3,1,2,0,23,3,12,0
武林茶文創人文茶飲坊/中和連城店,4.7,103,冰品飲料店,沒有地址,25.0019723,121.4987046,86,1,54,2,0,1,0,21,3,9,0
50嵐 南勢角店,3.1,264,冰品飲料店,新北市中和區景新街396號,24.9895527,121.5125042,92,1,107,0,0,3,1,11,4,0,0
中和珍珠奶茶,4.1,135,珍珠奶茶,"No. 106號, 廣福路中和區新北市235",25.0013271,121.5023902,107,3,91,3,1,2,0,23,3,11,0
冰島雪花妹南勢角店,4.8,312,冰品飲料店,新北市中和區信義街20號,24.989217,121.5110144,97,1,110,0,0,3,1,11,6,0,0
夯ㄟ碳烤土司,0.0,0,冰品飲料店,新北市中和區圓通路48號,24.9977109,121.5008022,101,1,85,3,0,1,0,16,3,6,0
清原芋圓 中和連城店合併至景新店,4.0,309,冰品飲料店,新北市中和區景新街414號,24.9890532,121.512745,90,1,104,0,0,3,1,10,4,0,0
讚豆GoodDrink綠豆冰沙,5.0,14,冰品飲料店,沒有地址,25.0119238,121.5174275,88,2,126,1,0,1,1,30,11,17,0
李記紅茶,1.0,1,無酒精飲料店,新北市中和區光華街37號,25.0039294,121.5052104,109,2,138,3,1,1,1,22,4,13,0
ㄐㄧㄡˋ大杯,5.0,2,冰品飲料店,新北市永和區文化路53號,25.0150275,121.5142249,69,2,104,1,0,1,1,29,6,23,0
果霸茶 永和樂華店,4.3,111,冰品飲料店,新北市永和區永和路二段35號,25.0105794,121.5144558,109,4,149,2,1,2,1,36,10,19,0
CoCo都可 中和興南店,3.7,250,珍珠奶茶,新北市中和區興南路一段99號,24.9883376,121.5095326,90,1,103,0,0,3,1,10,7,0,0
愛麗絲來找茶,4.1,52,冰品飲料店,新北市中和區華新街110號,24.982891,121.5084568,64,1,60,0,0,1,1,5,4,0,0
進發家-中和興南店,4.5,91,珍珠奶茶,新北市中和區興南路一段17號,24.9910677,121.5114129,97,1,117,0,0,3,1,14,5,2,0
50嵐 南勢角店,3.1,264,冰品飲料店,沒有地址,24.9895527,121.5125042,92,1,107,0,0,3,1,11,4,0,0
COMEBUY_台北景興店,4.2,235,冰品飲料店,台北市文山區景興路105號,24.99506,121.544851,34,3,44,1,1,2,1,14,10,5,0
捲捲義廚｜中永和美食｜義大利麵｜韓式披薩｜不限時咖啡廳,4.5,70,冰品飲料店,新北市中和區興南路一段76號2樓,24.9901156,121.510548,93,1,116,0,0,3,1,12,5,1,0
茶小兵 原茶專賣店,4.8,13,冰品飲料店,新北市中和區德光路99號,25.0032573,121.4684191,91,15,100,2,1,0,0,21,5,16,0
鶴茶樓- 鶴頂紅茶商店(中和員山店),4.2,162,珍珠奶茶,新北市中和區員山路147號,24.9963012,121.4810075,64,2,69,0,0,0,0,7,5,13,0
拾?茶屋 中和員山店,4.4,204,無酒精飲料店,新北市中和區員山路333號,25.001505,121.48118,90,4,95,1,1,2,0,9,4,11,0
上宇林頂級茶飲中和員山店,4.2,42,無酒精飲料店,新北市中和區員山路212號,25.0008644,121.4814209,85,4,93,1,1,2,0,8,4,11,0
布鹿‧果漾新鮮式Blue deer (永和竹林店),4.1,121,冰品飲料店,沒有地址,25.0088959,121.5207705,95,3,125,1,0,1,1,27,8,21,0
COMEBUY_新莊中和,4.3,62,冰品飲料店,新北市新莊區中和街165號1樓,25.0501984,121.4474238,90,8,102,0,1,0,0,12,7,4,0
可不可熟成紅茶 中和環球店,4.0,242,珍珠奶茶,新北市中和區中山路三段107號,25.0058331,121.4749423,92,2,74,1,1,2,0,18,5,16,0
藍天館手作雪花冰,3.6,601,冰品飲料店,新北市永和區永平路53號,25.0084926,121.5124606,123,4,160,2,1,2,1,39,11,18,0
來Tea館,4.2,47,冰品飲料店,台北市中正區南海路101號,25.0281129,121.5078566,49,5,41,1,0,1,1,5,12,7,1
糖品角屋,4.5,869,冰品飲料店,台北市中正區中華路二段303巷2號,25.0292202,121.504981,61,13,62,1,0,2,1,8,15,8,1
甘物家 x 甘物日飲 桂林家樂福店,4.7,358,冰品飲料店,台北市萬華區桂林路1號,25.0378942,121.5057598,85,36,151,2,6,3,3,14,11,1,1
北極熊抱,4.4,250,冰品飲料店,台北市中正區南昌路二段181號,25.0254174,121.522927,32,7,84,1,0,3,1,15,10,22,0
50嵐 南機場店,3.9,191,冰品飲料店,台北市中正區中華路二段309巷5號,25.028717,121.5057135,58,12,52,1,0,2,1,7,14,9,1
可不可熟成紅茶 台北公館店,3.8,293,冰品飲料店,台北市中正區汀州路三段174號,25.0131935,121.5346507,24,2,43,1,2,2,1,11,6,20,0
泰讚了 thai like tea 公館店,4.4,171,冰品飲料店,台北市中正區羅斯福路三段286巷18號,25.0157723,121.5323869,23,2,56,0,2,2,1,11,9,12,0
古早茶坊,4.9,1,冰品飲料店,台北市大安區龍泉街40號,25.0243764,121.5293689,23,5,91,0,0,2,1,17,13,24,0
一蕊花-藝術家的冰店,5.0,253,冰品飲料店,台北市大安區永康街31-4號,25.0310496,121.5295869,17,8,84,0,0,3,1,15,9,21,0
英姐黑糖珍珠鮮奶,4.0,112,冰品飲料店,台北市中正區中華路二段309巷22號,25.029091,121.5062107,57,13,50,1,0,2,1,7,15,9,1
HITOKUCHI COFFEE,4.8,370,冰品飲料店,新北市永和區復興街102號,25.0137318,121.5175818,71,2,110,1,0,1,1,28,7,21,0
茶美茶專業茶飲,4.0,24,冰品飲料店,新北市中和區國光街95號,25.0002045,121.4704044,79,2,66,0,1,0,0,21,4,9,0
蒔光紅茶,4.9,62,冰品飲料店,新北市板橋區民族路170巷1之3號,25.0075335,121.4674106,109,26,122,2,4,3,0,26,4,17,1
伊莉莎白紅茶書房-板橋府中店,3.5,361,冰品飲料店,新北市板橋區中山路一段19號,25.008406,121.4599039,84,29,140,3,4,2,1,27,4,19,1
匠心茶飲,4.6,50,無酒精飲料店,新北市板橋區國光路196-1號,25.0183945,121.4614856,83,25,133,4,2,2,0,16,7,23,1
馬祖奶茶-中和華夏店,4.8,76,冰品飲料店,新北市中和區華新街168號1 樓,24.9823166,121.5073522,61,1,52,0,0,1,1,4,5,1,0
當不了醫生就賣冰,4.9,38,冰品飲料店,新北市永和區國光路116巷1-1號b7,25.0115841,121.5178049,87,2,128,1,0,1,1,29,11,16,0
搖滾牛冰淇淋專賣店,4.8,233,冰品飲料店,新北市中和區華順街2巷1號,24.9989376,121.4673763,88,2,57,2,0,0,0,20,4,10,0
壽奶茶永和店,4.8,114,無酒精飲料店,新北市永和區中山路一段164號,25.0093429,121.5094583,105,4,142,2,1,2,1,36,6,17,0
壽奶茶台北南京店,4.8,58,冰品飲料店,台北市松山區長安東路二段219-2號,25.0486247,121.5446865,23,48,139,4,2,4,1,25,7,29,0
茶朵木,4.2,120,冰品飲料店,新北市板橋區莒光路59號,25.0243002,121.4710597,71,1,131,2,0,3,0,17,8,20,0
東海岸茶飲專賣店,4.3,65,冰品飲料店,新北市新莊區福壽街70號,25.0490746,121.4584617,83,6,91,1,0,1,0,11,5,2,0
清心福全中和景安店-珍珠奶茶手搖飲料專賣店,2.9,140,珍珠奶茶,新北市中和區景安路199號,24.9927479,121.5049181,98,1,116,0,0,2,1,11,4,3,0
Kasgo經典紅茶-新店安和店,3.7,13,冰品飲料店,新北市新店區安和路三段99號,24.9842417,121.5176423,59,1,52,0,0,1,1,5,3,4,0
特旺紅茶屋,4.5,28,冰品飲料店,沒有地址,24.9906801,121.4926065,50,2,35,1,0,1,0,8,3,14,0
伍師傅車輪餅 中和景安店,4.4,143,冰品飲料店,新北市中和區廣福路76號,25.0016683,121.5030422,110,3,107,3,1,2,0,21,3,12,0
得正#台北古亭計劃,3.8,312,冰品飲料店,台北市大安區和平東路一段19-1號,25.0272796,121.5229712,32,10,104,1,0,4,1,13,10,22,0
戀鮮乳中和店,4.3,146,冰品飲料店,沒有地址,24.9979872,121.5086082,116,0,141,2,0,3,1,26,3,9,0
港仔找茶,4.8,15,冰品飲料店,新北市中和區安平路8號,24.9936573,121.5088733,98,1,134,0,0,4,1,15,7,4,0
清涼小棧-創意飲品店,4.8,68,冰品飲料店,新北市永和區民享街1巷二號一樓,24.9958024,121.5149142,107,1,143,1,0,3,1,20,6,11,0
ㄋㄟㄋㄟ補給站綠豆沙,3.6,17,冰品飲料店,新北市中和區信義街29號,24.9893107,121.5111381,96,1,111,0,0,3,1,11,6,0,0
玉山燒仙草,4.0,44,冰品飲料店,新北市中和區景新街410巷13之2號,24.9889058,121.5120835,95,1,106,0,0,3,1,9,5,0,0
福滿溢黑砂糖剉冰 創始店,4.1,748,冰品飲料店,新北市永和區安樂路240-1號,25.0027453,121.5149541,117,5,175,1,1,1,1,34,8,24,0
鱷油手工現洗愛玉,4.7,19,冰品飲料店,沒有地址,25.0089119,121.5109143,118,4,158,2,1,2,1,41,8,18,0
玖柒冰品店,3.0,2,冰品飲料店,新北市永和區智光街95號,24.9971015,121.5163997,107,1,129,1,0,2,1,21,7,11,0
阿爸?芋圓 樂華店,4.3,5,冰品飲料店,新北市永和區保平路18巷1號,25.0076477,121.5123365,121,4,164,2,1,2,1,36,11,19,0
四季可舒丫茶專賣店（萬青店）,4.4,39,冰品飲料店,台北市萬華區萬青街139號,25.0233274,121.5016407,27,6,52,2,0,0,1,9,10,8,0
三年五班黑糖珍珠鋪-中和安平店,4.2,374,冰品飲料店,沒有地址,24.9972414,121.511623,111,1,157,1,0,4,1,22,6,7,0
好實在冰品店,4.6,108,冰品飲料店,沒有地址,24.996923,121.51142,111,1,162,1,0,4,1,23,5,7,0
康青龍創意茶飲_中和景安店,4.1,78,冰品飲料店,沒有地址,24.9953452,121.5055363,104,2,135,1,0,3,1,12,4,7,0
清心福全 永和宜安店-珍珠奶茶手搖飲料專賣店,4.1,133,冰品飲料店,沒有地址,24.9956694,121.5140024,108,1,152,1,0,4,1,19,5,8,0
Hashtea 井製茶飲,4.6,126,冰品飲料店,沒有地址,24.9940661,121.5051631,95,2,127,0,0,2,1,11,5,6,0
原味穀舞-中和宜安店,4.4,72,冰品飲料店,沒有地址,24.9985863,121.5091129,115,0,139,2,0,3,1,24,4,10,0
蓋斯茶中和永安站,5.0,177,冰品飲料店,沒有地址,25.0031781,121.5133512,114,4,164,1,1,1,1,34,10,21,0
CoCo都可 景安店,3.7,187,冰品飲料店,沒有地址,24.9930879,121.5047158,96,1,119,0,0,2,1,12,5,3,0
佐日光茶館 景安店,4.0,110,冰品飲料店,沒有地址,24.9937197,121.5039949,96,2,109,0,0,2,1,10,4,4,0
一只小芋圓-中和景新店｜人氣飲料｜網紅甜品｜寵物友善｜手工仙草｜黑糖刨冰｜芋圓地瓜圓｜超大杯,4.9,130,冰品飲料店,沒有地址,24.9941745,121.5084147,98,1,143,0,0,4,1,14,7,4,0
可不可熟成紅茶-中和景安店,3.4,115,冰品飲料店,沒有地址,24.992961,121.5049851,100,1,118,0,0,2,1,12,5,3,0
50嵐 景安店,3.2,48,冰品飲料店,沒有地址,24.9932398,121.5050186,99,1,120,0,0,2,1,12,6,4,0
鮮饗茶GOTCHA-永和店,4.4,185,冰品飲料店,沒有地址,24.9955173,121.513828,111,1,146,1,0,4,1,20,5,8,0
留校茶看冷熱飲-校長室,4.1,141,冰品飲料店,沒有地址,24.9888944,121.511755,96,1,107,0,0,3,1,10,6,0,0
港仔找茶,4.8,15,冰品飲料店,沒有地址,24.9936573,121.5088733,98,1,134,0,0,4,1,15,7,4,0
COMEBUY(中和中安店),4.1,182,冰品飲料店,沒有地址,25.0020554,121.5123007,113,4,159,1,1,1,1,30,8,18,0
泰國·遇泰式奶茶專賣店(四號公園店),4.4,112,冰品飲料店,沒有地址,25.0021316,121.512368,114,4,157,1,1,1,1,30,8,18,0
兔子茶飲,4.3,13,冰品飲料店,沒有地址,24.9916396,121.5182343,84,1,94,0,0,3,1,14,4,3,0
燒等一夏Ciao ice-中和冰店 中和芝麻湯圓 中和紅豆湯 永安市場冰店 燒仙草 四號公園冰店,4.7,111,冰品飲料店,沒有地址,24.9989869,121.5131495,109,0,137,1,0,2,0,24,8,16,0
Gathering複合式泡沫紅茶店,5.0,1,珍珠奶茶,沒有地址,24.9958485,121.5105203,106,1,153,1,0,4,1,20,5,6,0
麻古茶坊中和中和店,3.5,171,冰品飲料店,沒有地址,25.0016445,121.4998076,95,1,64,2,0,0,0,22,3,9,0
五桐號WooTea 新北南勢角店,4.0,319,冰品飲料店,沒有地址,24.9891449,121.509785,91,1,110,0,0,3,1,12,7,0,0
禮采芙-永安市場店-永和特色茶飲|必喝飲料|熱門飲料|人氣飲料|奶蓋首選|在地推薦飲料,4.7,221,冰品飲料店,沒有地址,25.0017362,121.5100911,117,3,166,2,1,1,1,31,7,16,0
泰上飲,4.9,27,冰品飲料店,沒有地址,24.9883953,121.5113889,93,1,106,0,0,3,1,9,7,0,0
李記紅茶永和中正店,4.6,27,冰品飲料店,沒有地址,24.9955194,121.5138466,111,1,146,1,0,4,1,20,5,8,0
Different 酪梨大王,3.5,21,冰品飲料店,沒有地址,24.9904369,121.5082799,95,1,113,0,0,3,1,11,5,1,0
巷內綠豆饌,4.6,98,冰品飲料店,沒有地址,25.0026739,121.5122107,117,4,155,1,1,1,1,32,8,21,0
迷客夏Milksha 新北景新店,3.9,615,冰品飲料店,沒有地址,24.9907438,121.5121752,97,1,115,0,0,3,1,15,4,2,0
超大杯飲料店,3.0,1,冰品飲料店,新北市中和區景新街410巷21號,24.9887868,121.5117705,95,1,107,0,0,3,1,9,5,0,0
14號綠豆沙,4.0,7,冰品飲料店,新北市中和區仁愛街14號1樓,24.9889704,121.5106201,96,1,106,0,0,3,1,11,7,0,0
閑茗樓 新店店-新店必喝飲品|人氣飲料|推薦手搖|夏季飲品|飲料店推薦|珍珠奶茶推薦,4.6,605,冰品飲料店,新北市新店區中正路187號,24.9721986,121.5406292,87,5,64,0,1,2,0,17,6,7,0
默沫-新店北新店-手搖飲 茶飲 珍珠奶茶 水果茶,4.5,265,珍珠奶茶,新北市新店區北新路一段215號,24.9652199,121.540261,60,1,34,0,0,2,0,9,4,4,0
萃茶風,4.6,426,冰品飲料店,沒有地址,24.9957832,121.4879592,83,3,72,1,0,1,0,6,3,15,0
CoCo都可 宜安店,3.9,133,冰品飲料店,新北市中和區宜安路160號,24.9988892,121.5091343,114,0,142,2,0,3,0,24,4,10,0
喫茶趣ToGo(環球店),3.0,22,珍珠奶茶,新北市中和區中山路三段122號B2樓,25.006436,121.475059,96,2,74,1,1,2,0,17,5,18,0
泰上飲,4.9,27,冰品飲料店,新北市中和區信義街58號,24.9883953,121.5113889,93,1,106,0,0,3,1,9,7,0,0
源平溪豆花大王,3.4,117,冰品飲料店,新北市中和區忠孝街126-1號,24.9866092,121.5121075,84,1,74,0,0,2,1,6,5,0,0
好了啦紅茶冰－新店永安店,4.0,2,冰品飲料店,新北市新店區永安街80巷1號1樓3室,24.9860796,121.5201915,56,1,43,0,0,3,0,5,1,2,0
清心福全冷飲站中和自立店,2.7,118,冰品飲料店,新北市中和區自立路187號,24.9913939,121.5239644,56,1,31,0,0,3,0,13,3,6,0
中安冰店,3.7,3,冰品飲料店,新北市新店區安和路三段29-2號,24.9812679,121.5176231,45,0,20,0,0,0,0,7,1,4,0
吉茶莊-華夏科大店,3.1,17,冰品飲料店,新北市中和區工專路26號,24.9810374,121.5070329,47,1,32,0,0,0,0,3,4,1,0
烏弄原生茶飲 中和新生店,4.1,81,冰品飲料店,新北市中和區新生街150號,25.0005989,121.4836069,88,3,83,1,0,2,0,9,3,15,0
一芳水果茶 中和建一店,3.5,62,冰品飲料店,新北市中和區建一路183號,24.9980412,121.4883126,95,4,80,1,0,2,0,7,3,13,0
50嵐 中和遠東店,3.2,155,冰品飲料店,新北市中和區連城路395號,24.9960596,121.4863919,79,2,71,1,0,1,0,6,5,13,0
茶湯會 中和連城店,3.7,45,冰品飲料店,新北市中和區連城路385號,24.9960511,121.4866611,80,3,72,1,0,1,0,5,5,13,0
小茶齋 新莊店（自取買五送一）,3.9,289,冰品飲料店,新北市新莊區建福路73號,25.026766,121.4269907,93,9,80,1,1,1,0,12,2,7,0
茗山茶行,4.4,5,茶葉店,新北市中和區復興路295號,24.9900608,121.5016922,79,1,73,1,0,2,1,10,3,1,0
古早味紅茶,5.0,4,冰品飲料店,新北市中和區復興路281號,24.9901661,121.5021182,81,1,79,1,0,2,1,10,3,1,0
月半星球｜金賞獎??白玉鍋煮厚奶茶｜冰沙奶蓋｜中和板橋飲料｜,4.8,244,冰品飲料店,沒有地址,25.0057423,121.4754669,92,2,75,1,1,1,0,18,6,16,0
50嵐 德行店,3.8,287,冰品飲料店,台北市士林區德行西路60號,25.105171,121.522829,9,10,48,0,0,2,0,24,8,6,0
清心福全(中和華新店),2.7,151,冰品飲料店,新北市中和區華新街117號,24.9820071,121.5070271,56,1,48,0,0,1,1,4,5,1,0
貨櫃茶屋,4.4,15,冰品飲料店,新北市中和區忠孝街22號1樓,24.9828898,121.5104493,61,1,59,0,0,1,1,5,5,0,0
啾豆綠豆沙飲品裕民店,4.8,81,冰品飲料店,沒有地址,25.0287829,121.461339,54,1,77,1,0,2,1,16,5,18,0
金五春職人茶飲(伊通店),4.9,1,冰品飲料店,台北市中山區伊通街112-1號,25.054223,121.5346862,22,7,124,2,2,3,1,30,7,16,0
有飲 Youin 創意飲品-新北土城店,4.4,106,飲品分銷商,新北市土城區裕民路105號,24.9868956,121.4509597,73,1,73,2,0,1,0,18,4,12,0
甲文青茶飲專? 新北蘆洲店,4.8,629,冰品飲料店,新北市蘆洲區中正路160號,25.08565,121.4687568,114,2,111,0,0,2,1,23,5,5,0
七盞茶 中山吉林店-中山區推薦飲品|200元外送|手搖飲推薦|熱門飲料|下午茶點心|必喝飲品,4.2,143,冰品飲料店,台北市中山區吉林路211號,25.0603252,121.5303728,37,7,147,2,2,3,1,27,6,10,0
50嵐 萬隆店,3.8,273,冰品飲料店,台北市文山區羅斯福路五段217號,25.0021686,121.5391303,29,1,16,0,1,1,0,18,6,9,0
春山茶水舖,4.5,1,冰品飲料店,台北市大安區復興南路二段323號,25.0238974,121.5435673,23,8,65,0,1,2,0,16,13,30,0
再睡5分鐘 - 台北南陽店,4.6,5,冰品飲料店,台北市中正區南陽街24號,25.0443763,121.5160724,59,73,159,2,3,5,0,13,11,9,1
滿上仙草茶飲專賣店,3.9,306,冰品飲料店,台北市中山區松江路58號,25.0487859,121.5327458,8,6,106,1,3,2,1,27,9,18,0
進發家 通化店,4.2,138,冰品飲料店,台北市大安區通化街97號,25.0297497,121.5542529,33,13,132,3,2,3,1,26,10,22,0
五桐號 通化旗艦店,3.6,945,冰品飲料店,台北市大安區通化街41號,25.0308243,121.5543627,33,13,140,3,2,3,1,23,10,19,0
1996 台灣茶葉飲品專賣店,4.9,910,冰品飲料店,台北市大同區承德路三段25號,25.0640643,121.5185486,65,11,133,2,0,5,5,19,16,9,0
Pinatshiu WuXing 坪林手,4.5,396,冰品飲料店,台北市信義區吳興街92號,25.0304661,121.5606826,24,29,127,2,2,3,1,28,9,14,0
拾年茶事-萬華西門店,4.8,309,冰品飲料店,台北市萬華區漢中街195號,25.040959,121.506693,84,34,147,2,6,4,1,15,10,4,0
易水寒-永和分店,4.6,102,冰品飲料店,新北市永和區竹林路44-2號,25.014169,121.5175355,67,2,107,1,0,1,1,29,7,21,0
淘汽小姐 Naughty Lady_(歐姆蕾爆乳捲、氣泡飲、甜點、客製化飲品、外送服務),4.4,543,冰品飲料店,沒有地址,24.9950247,121.5005323,98,1,76,3,0,1,0,11,4,5,0
不一樣珍珠奶茶店,3.4,200,珍珠奶茶,新北市板橋區重慶路12巷1號,25.0077462,121.4607435,89,29,143,3,4,2,1,28,5,19,1
黛黛茶 公館秀泰店,4.4,184,冰品飲料店,台北市中正區羅斯福路四段136巷3號,25.0127214,121.535457,21,2,44,1,2,1,1,10,6,17,0
Tree.DA?茶飲（西門/飲料/黑糖珍珠鮮奶/3Q奶茶/ ???/珍珠奶茶）,5.0,229,冰品飲料店,台北市萬華區貴陽街二段115-13號,25.0400413,121.5027174,79,31,134,2,6,3,2,16,7,3,1
俊客思飲料店,4.1,130,冰品飲料店,新北市永和區民生路45號1樓,24.9979182,121.522891,100,2,68,0,0,2,0,17,7,12,0
五桐號WooTea 台北景美店,4.4,284,冰品飲料店,台北市文山區景文街104號,24.9901189,121.540905,57,5,55,2,1,2,1,12,7,7,0
CoCo都可 景文店,4.3,413,冰品飲料店,台北市文山區景文街95號,24.9909743,121.5413486,53,4,48,2,1,2,1,13,8,6,0
清心福全 景文店,2.4,196,冰品飲料店,台北市文山區景文街129號,24.9902166,121.5411819,54,5,54,2,1,2,1,12,8,7,0
可不可熟成紅茶 台北景美店,3.7,70,冰品飲料店,台北市文山區景文街43號,24.9919429,121.5414201,49,3,46,1,1,1,1,14,9,6,0
武林茶文創人文茶飲坊/景美景文店,4.4,351,珍珠奶茶,台北市文山區景文街88號1樓,24.99045,121.540983,53,5,50,2,1,2,1,12,8,7,0
大苑子 台北景美店,3.1,384,冰品飲料店,台北市文山區景文街94號,24.990332,121.540962,53,5,52,2,1,2,1,12,8,7,0
月半杯杯飲品販賣所 景大店,5.0,3,冰品飲料店,新北市新店區安忠路99號景文科大 第一餐廳 F棟 B2 景文宿舍大樓對面棟B2,24.9505337,121.5095648,33,0,5,1,0,0,0,1,1,4,0
COMEBUY 景美店,4.4,314,冰品飲料店,台北市文山區景中街9號,24.9930511,121.5418569,42,3,43,1,1,2,1,16,9,6,0
清心福全中和景新店,5.0,4,無酒精飲料店,新北市中和區景新街382號,24.9898841,121.5123513,93,1,110,0,0,3,1,12,4,0,0
泰讚了 thai like tea 泰式奶茶/ 景美店,4.4,107,冰品飲料店,台北市文山區景興路282巷7號號1樓,24.9896921,121.5416663,58,5,58,2,1,2,1,11,7,7,0
雨濃,4.3,6,冰品飲料店,新北市中和區景新街467巷4號1樓,24.9881283,121.5137244,75,1,86,0,0,2,1,9,5,0,0
敦本堂極品康美茶,4.8,24,冰品飲料店,新北市中和區信義街56號,24.9885854,121.5112787,94,1,106,0,0,3,1,9,7,0,0
飲飲作樂吐司果汁飲品,4.7,10,冰品飲料店,新北市新店區安祥路102巷98弄2號,24.96372,121.4875797,8,0,1,0,0,0,0,0,0,0,0
得正#中和環球計劃,3.9,79,無酒精飲料店,新北市中和區中山路三段125號,25.0059805,121.4743567,93,2,73,1,1,1,0,18,5,17,0
北投紅茶,3.6,36,無酒精飲料店,沒有地址,25.0022289,121.5105623,114,4,168,2,1,1,1,33,7,16,0
享萃,5.0,43,冰品飲料店,台北市大同區長安西路220巷16號,25.0507824,121.5145398,66,79,210,1,2,4,2,21,7,12,1
Passion鮮喝茶,4.9,24,珍珠奶茶,新北市中和區民德路296號1樓,24.9955586,121.4673924,80,2,55,0,0,0,0,15,5,7,0
有飲 Youin 創意飲品-台北大安店,4.0,1,冰品飲料店,台北市大安區大安路一段95號,25.0405023,121.5462661,41,47,163,6,2,3,0,19,9,25,0
QQ茶舖,0.0,0,冰品飲料店,新北市中和區民安街21號,25.000535,121.480466,87,3,93,1,1,1,0,9,5,11,0
超級達可樹林（三俊店）,3.7,22,冰品飲料店,新北市樹林區三俊街121號,25.0156475,121.417668,67,2,41,0,0,1,0,6,3,4,0
你的茶 unique tea,4.3,97,冰品飲料店,新北市中和區民有街1號,25.0058013,121.4754902,92,2,74,1,1,1,0,18,6,16,0
晴喜摘 板橋民生店,4.8,331,冰品飲料店,新北市板橋區民生路三段60號,25.0254295,121.4673337,77,3,135,3,0,3,1,17,5,22,0
COMEBUY_板橋民生店,4.3,251,冰品飲料店,新北市板橋區民生路三段48號,25.0251824,121.467423,76,3,137,2,0,3,1,17,5,20,0
小豆花冰品店,4.7,36,冰品飲料店,新北市永和區民生路61號一樓,24.9974809,121.522845,100,2,67,0,0,2,0,17,7,11,0
50嵐 民生店,3.5,324,冰品飲料店,台北市松山區民生東路四段104號,25.0580181,121.5542381,13,12,66,3,0,3,0,26,7,19,0
degugu果果迪 (敦北民生總店),4.5,370,冰品飲料店,台北市松山區民生東路四段65號,25.0580268,121.5509572,19,11,68,2,0,5,0,26,7,17,0
樂法 Le Phare - 民生店,4.7,261,冰品飲料店,台北市松山區民生東路三段130巷16號,25.0566428,121.5460921,28,15,92,3,1,5,1,27,8,18,0
天仁茗茶 民生社區店,3.4,192,冰品飲料店,台北市松山區民生東路五段126號,25.0586273,121.5612664,0,10,61,1,1,1,0,27,8,12,0
果汁媽粉條爸,4.2,428,冰品飲料店,新北市板橋區民生路二段230-1號,25.0221804,121.4690344,75,10,130,2,1,4,0,19,7,22,0
冠葉Kuantea,4.7,11,珍珠奶茶,台北市松山區民生東路四段72號,25.057846,121.552434,18,11,63,2,0,4,0,25,6,19,0
茶湯會(民生東五店),3.5,58,冰品飲料店,台北市松山區民生東路五段197-2號,25.0592112,121.5662559,0,9,42,0,1,1,0,19,5,11,0
健康橘子工坊(台北民生店),3.6,130,冰品飲料店,台北市松山區三民路156號,25.0614211,121.5632993,0,6,31,1,1,0,0,19,6,6,0
潮太泰????現作泰式奶茶,5.0,248,冰品飲料店,台北市中山區民生東路一段23巷2號,25.0583266,121.5243598,42,32,177,2,2,5,3,24,12,11,0
春陽茶事 台北雙連店,3.1,184,冰品飲料店,台北市中山區民生西路11號,25.0579128,121.5216149,54,34,175,1,2,5,3,22,12,13,0
享想 松山民生店,3.9,289,冰品飲料店,台北市松山區三民路111號1樓,25.0578205,121.563336,0,10,57,1,1,1,0,22,7,12,0
伊莉莎白紅茶書房-寧夏夜市殿,3.2,299,冰品飲料店,台北市大同區民生西路231號,25.057175,121.5157569,62,56,154,2,2,4,3,19,13,10,0
50嵐 新東店,3.9,150,冰品飲料店,台北市松山區民生東路五段197-1號,25.0592075,121.5661594,0,9,45,0,1,1,0,19,5,11,0
清心福全松山民生東店-珍珠奶茶手搖飲料專賣店,2.9,176,冰品飲料店,台北市中山區遼寧街43號,25.048702,121.542248,21,43,138,4,2,3,1,24,8,24,0
霜江茶行 台北北醫店,2.4,120,冰品飲料店,台北市信義區莊敬路390號,25.027359,121.565463,13,9,65,1,1,2,0,23,6,7,0
錨起來喝(台北雙連店),3.5,344,珍珠奶茶,台北市大同區民生西路149號,25.0574384,121.5179141,64,56,184,2,3,4,3,24,15,10,0
茶涎富錦店,4.6,227,冰品飲料店,台北市松山區富錦街532號,25.061261,121.5658241,0,11,24,0,1,0,0,16,5,7,0
再睡5分鐘 - 台北寧夏店,4.8,1,冰品飲料店,台北市大同區民生西路212號,25.0568827,121.5149738,61,56,150,2,2,5,3,19,14,9,0
EPIC茶茶,4.6,181,冰品飲料店,台北市松山區民權東路三段160巷17號,25.0605413,121.5475912,22,14,80,1,0,3,0,22,6,8,0
一手私藏世界紅茶 台北通化店,3.9,140,冰品飲料店,台北市大安區通化街99號1樓,25.0297336,121.5542078,33,13,132,3,2,3,1,26,10,22,0
五桐號WooTea 台北晴光市場店,3.3,286,冰品飲料店,台北市中山區農安街8-5號,25.064822,121.52343,47,7,105,2,0,4,1,23,10,7,0
阿文冬瓜茶,4.5,74,冰品飲料店,台北市松山區饒河街208號,25.050684,121.577138,26,5,69,1,0,1,1,27,4,16,1
五桐號WooTEA-台北合江店-中山特色茶飲|必喝飲料|熱門飲料|人氣飲料|季節飲品|在地推薦飲料,3.9,23,冰品飲料店,台北市中山區合江街113號,25.060069,121.5393284,33,10,116,1,1,2,0,23,5,10,0
烏弄原生茶飲(台北合江店),3.6,97,冰品飲料店,台北市中山區合江街105號,25.0598242,121.5392623,33,11,118,1,1,3,0,23,5,10,0
蛋裡找茶,4.7,36,冰品飲料店,台北市松山區健康路96號,25.053361,121.5549698,10,16,82,5,0,2,0,29,9,20,0
好泰GOODTHAI 饒河總店,4.9,158,冰品飲料店,台北市松山區饒河街161號,25.0506414,121.5752527,22,8,75,1,0,1,1,27,4,17,1
六順豆花,3.5,1,冰品飲料店,台北市松山區新東街26巷1-1號,25.0587702,121.5660485,0,10,47,1,1,1,0,20,6,11,0
大盜陳茶飲（創始店）,4.2,2,冰品飲料店,台北市大同區迪化街一段20號,25.054268,121.510076,54,29,104,1,0,1,2,15,10,10,1
署茗職茶@AtTea 台北內湖旗艦店,2.7,169,冰品飲料店,台北市內湖區洲子街83號,25.0803736,121.5707652,24,8,103,0,0,2,1,26,8,14,0
珍煮丹 台北南京店,3.8,154,冰品飲料店,台北市松山區南京東路四段108號,25.0514395,121.5545223,11,18,86,5,0,2,0,22,9,21,0
五桐號WooTea 台北遼寧店,3.5,152,冰品飲料店,台北市中山區遼寧街48-3號,25.049128,121.5420566,23,43,137,4,3,3,1,25,8,23,0
有飲 Youin 創意飲品-台北永吉店,3.7,191,冰品飲料店,台北市信義區永吉路30巷95號,25.0437268,121.5688875,23,79,120,1,3,3,0,27,7,15,0
古味紅茶,4.6,29,冰品飲料店,台北市信義區永吉路278巷60號之2號,25.0430745,121.5740395,26,68,129,1,1,3,2,32,9,12,1
可不可熟成紅茶 科技大樓店,3.8,66,冰品飲料店,台北市大安區和平東路二段307號,25.0249697,121.5450054,24,9,79,0,1,3,0,18,15,25,0
麻古茶坊中山農安店,3.7,320,冰品飲料店,台北市中山區農安街8-6號,25.064822,121.52343,47,7,105,2,0,4,1,23,10,7,0
自己來紅茶鮮乳 中和民安店,4.6,5,冰品飲料店,新北市中和區民安街9號,25.000717,121.480739,88,4,93,1,1,1,0,9,5,11,0
匠喝嫩仙草—民生店,4.0,108,冰品飲料店,台北市松山區民生東路五段192-6號1樓,25.0581596,121.5640391,0,9,53,1,1,1,0,21,7,14,0
迷迷狐狐,4.2,51,冰品飲料店,台北市中山區民生東路一段30號1樓,25.0578607,121.5241694,42,32,177,2,2,5,3,23,12,11,0
民生冰?室,5.0,222,冰品飲料店,台北市松山區民生東路五段137巷4弄21號,25.0599066,121.5623674,0,9,45,1,1,1,0,21,6,7,0
心中間,4.3,8,冰品飲料店,台北市松山區新中街6巷No. 13號,25.0584106,121.5612179,0,10,62,1,1,1,0,27,8,13,0
馬祖奶茶 台北敦北店,4.5,28,冰品飲料店,台北市松山區敦化北路222巷16號1樓,25.059194,121.548069,22,13,76,1,0,5,0,22,7,12,0
耘享濃豆乳,4.4,52,冰品飲料店,台北市松山區民生東路四段80巷1弄6號,25.0575471,121.5533375,14,13,68,3,0,4,0,26,7,21,0
谷泰茶莊,4.4,12,茶葉店,新北市中和區安平路144號,24.9981016,121.512413,106,0,133,1,0,4,1,24,7,10,0
何家甜品鋪-剉冰雪花冰(新莊幸福),4.3,455,冰品飲料店,新北市新莊區中和街156號,25.0487136,121.4475622,90,7,104,0,1,0,0,12,8,9,0
清心福全蘆洲三民店珍珠奶茶手搖飲料專賣店,4.0,95,冰品飲料店,新北市蘆洲區中山一路115號,25.0815111,121.4762405,97,5,97,0,0,2,1,26,5,2,0
清心福全蘆洲中華店-珍珠奶茶手搖飲料專賣店,4.4,686,冰品飲料店,新北市蘆洲區中華街25-1號,25.0815014,121.4634896,94,2,93,0,0,0,1,20,3,4,0
喝上隱,5.0,251,冰品飲料店,台北市大安區通化街103號,25.029605,121.5541335,33,13,134,3,2,3,1,26,10,22,0
似曾相識飲料&蔥抓餅,5.0,112,冰品飲料店,沒有地址,24.998584,121.5021483,107,1,99,2,0,2,0,20,3,9,0
自己來紅茶鮮乳 永和店,4.2,10,冰品飲料店,沒有地址,25.007382,121.5135818,125,4,170,2,1,2,1,32,12,19,0
爽爽喝專業茶飲,5.0,47,冰品飲料店,新北市土城區延和路78號,24.9892905,121.4662056,77,1,55,0,0,0,0,16,3,9,0
溙炎創意飲品,4.7,36,冰品飲料店,新北市土城區延和路59號1 樓,24.9898402,121.466674,76,1,55,0,0,0,0,15,3,4,0
初牧乳飲製造所（新莊中港店）,4.7,93,冰品飲料店,新北市新莊區中港路137號,25.0405607,121.4551061,81,5,100,4,0,2,1,10,5,12,0
梁記手作豆花暫時移置竹林路39巷9號(竹林雞肉旁),3.9,337,冰品飲料店,新北市永和區信義路1號,25.0118155,121.5146923,100,4,131,2,1,1,1,33,9,18,0
CoCo都可 北市南機場店,4.0,160,冰品飲料店,台北市中正區中華路二段307巷18號,25.028998,121.5058426,59,14,53,1,0,2,1,8,15,8,1
金嘟美食站—早餐、雞排、飲料店,4.4,174,冰品飲料店,新北市永和區福和路57巷14弄2號,25.0071798,121.5228507,89,4,99,1,0,0,0,22,7,21,0
谷雨茶水舖,4.8,86,冰品飲料店,沒有地址,25.0015424,121.488223,89,4,78,1,0,2,0,11,2,13,0
芥菜種小花園,5.0,13,飲品分銷商,營業中 ? 結束營業時間：17:00,23.4857501,120.0843006,0,0,5,0,0,0,0,0,0,0,0
好了啦-板橋府中店,2.8,4,冰淇淋設備供應商, 585 727,25.005939,121.4565846,82,20,115,3,3,2,1,23,8,16,0
好茶泡沫紅茶,4.1,363,冰品飲料店,新北市板橋區中正路15號,25.0123803,121.4560784,79,22,146,2,3,2,1,28,5,20,1
逸萃茶,4.5,47,珍珠奶茶,新北市永和區中正路476號,25.0034196,121.5175155,122,4,177,2,0,1,1,31,8,23,0
台灣老茶王,0.0,0,茶葉店,facebook.com,23.1410663,120.0843006,0,0,1,0,0,0,0,0,0,0,0
茶二坊 斯里蘭卡 台灣 茶飲專門,4.9,225,無酒精飲料店,新北市建一路170-2號F棟中庭遠東世紀廣場1樓,24.99769,121.4874786,90,4,75,1,0,2,0,6,4,13,0
CoCo都可 永和中正店,3.8,172,珍珠奶茶,新北市永和區中正路184號,24.9968977,121.5154481,105,1,131,1,0,3,1,23,7,11,0
功夫茶,0.0,0,冰品飲料店,新北市中和區南山路320巷6-7號,24.9863445,121.5071634,79,1,81,0,0,2,1,9,6,0,0
萬波島嶼紅茶板橋府中店,3.2,90,冰品飲料店,新北市板橋區重慶路34號,25.0075632,121.4611856,96,29,148,3,4,2,1,27,5,19,1
李記紅茶冰 板橋莒光店,4.2,39,冰品飲料店,新北市板橋區莒光路237號,25.0220638,121.4742779,89,2,121,1,0,4,0,22,6,20,0
糖舖挫冰,4.1,34,冰品飲料店,沒有地址,25.0041402,121.5069932,112,2,147,3,1,1,1,26,4,14,0
50嵐連城店,3.2,275,珍珠奶茶,新北市中和區連城路13號,25.0021107,121.4990866,85,1,57,2,0,1,0,21,3,9,0
豆林豆花,4.6,328,冰品飲料店,新北市永和區福和路283號,25.0073133,121.517416,120,4,166,2,1,2,1,31,9,23,0
福氣塘HOKI TEA 板橋大遠百B1F(大食代內),4.4,111,冰品飲料店,新北市板橋區新站路28號B1,25.0139366,121.4671927,93,26,123,2,3,3,0,24,6,24,1
368福泉布丁豆花,4.8,94,冰品飲料店,新北市永和區中正路368巷1弄47號,25.0012362,121.5193268,121,4,139,1,0,1,0,25,8,18,0
好福甜?豆花?雪花冰?燒仙草?紅豆湯?銀耳白木耳?刨冰挫冰?湯圓粉粿.,4.8,86,冰品飲料店,新北市永和區民享街1巷4號,24.9959304,121.5149608,109,1,143,1,0,3,1,19,6,11,0
茶握飲品專賣店,4.8,24,飲品分銷商,新北市永和區永貞路298號,25.0047118,121.5123199,126,4,164,2,1,1,1,33,8,23,0
白巷子土城廣福店,4.7,53,冰品飲料店,新北市土城區廣福街9號,24.9889335,121.4571394,94,2,79,2,0,1,0,19,6,13,0
霜江茶行新莊福樂店,4.2,29,冰品飲料店,新北市新莊區福樂街11號,25.0448948,121.4578332,82,7,90,3,0,2,0,10,4,8,0
清心福全福美店,4.6,62,無酒精飲料店,新北市中和區福美路247號,25.0050458,121.4990173,78,3,48,2,1,1,0,20,3,8,0
南勢角珍珠奶茶,3.5,53,無酒精飲料店,新北市中和區景新街410巷3號,24.9890897,121.5126702,91,1,106,0,0,3,1,10,4,0,0
七福手作茶飲,4.6,20,無酒精飲料店,新北市板橋區雙十路三段33號,25.0316103,121.470595,54,1,100,0,0,3,0,17,4,15,0
清心福全永和永貞店-珍珠奶茶手搖飲料專賣店,2.7,156,珍珠奶茶,新北市永和區永貞路392號,25.0074579,121.5094159,118,4,144,3,1,2,1,40,7,16,0
清心福全淡水真理店-珍珠奶茶手搖飲料專賣店,3.4,60,冰品飲料店,新北市淡水區新民街138號,25.1779038,121.4375719,94,1,59,0,1,0,0,18,6,0,0
可不可熟成紅茶-中和福祥店,3.3,61,冰品飲料店,沒有地址,25.002986,121.499346,86,2,53,2,0,1,0,20,3,9,0
新茶會茶飲專賣店（中和福祥店）,3.6,14,珍珠奶茶,新北市中和區永和路52號,25.0040182,121.4992708,78,3,50,2,1,1,0,21,3,8,0
Rico義式廚房 中和福美店｜義麵｜燉飯｜手開披薩pizza｜開胃菜 | 焗烤｜親子家庭｜朋友商務聚餐｜,4.6,74,冰品飲料店,新北市中和區福美路315號,25.0046549,121.4967333,75,2,46,2,0,1,0,15,3,8,0
迷客夏Milksha 新北永和得和店,4.4,244,冰品飲料店,新北市永和區得和路336號,24.9994497,121.5234392,101,2,64,0,0,0,0,18,7,15,0
外星小棧,5.0,6,冰品飲料店,新北市中和區景平路146－1號,24.9921159,121.5183069,88,1,98,0,0,3,1,15,4,3,0
COMEBUY_永和得和店,3.6,76,冰品飲料店,新北市永和區得和路429號,24.9991827,121.526504,75,2,39,0,0,1,0,12,6,18,0
珍煮丹 中和連城店,3.4,291,冰品飲料店,沒有地址,25.0021161,121.4989568,86,1,55,2,0,1,0,21,3,9,0
清原芋圓 中和連城店合併至景新店,4.0,309,冰品飲料店,沒有地址,24.9890532,121.512745,90,1,104,0,0,3,1,10,4,0,0
CoCo都可 永和得和店,4.1,164,冰品飲料店,新北市永和區得和路398號,24.9990806,121.5254804,85,2,41,0,0,1,0,14,7,16,0
永貞新村紅茶冰X甜甜圈-中和仁愛,4.5,64,冰品飲料店,沒有地址,24.9881585,121.5112248,92,1,104,0,0,3,1,9,7,0,0
古早味黑砂糖剉冰秀朗店（涓冰坊）,4.4,253,冰品飲料店,新北市永和區秀朗路二段293號,24.9978332,121.5261748,75,2,36,0,0,1,0,12,4,13,0
永和水果茶,4.1,14,無酒精飲料店,新北市永和區得和路413號,24.999288,121.5258292,82,2,41,0,0,1,0,14,6,17,0
清心福全中和橋和店-珍珠奶茶手搖飲料專賣店,3.4,357,冰品飲料店,沒有地址,25.0056998,121.4909111,67,2,43,1,0,2,0,13,0,10,0
50嵐 新店民權店,4.1,274,冰品飲料店,新北市新店區民權路123號,24.9826947,121.5357238,80,2,58,1,0,2,0,11,6,5,0
珍正鄉古早黑砂糖剉冰(秀山店),5.0,3,冰品飲料店,新北市中和區自強路66號,24.9943348,121.5198627,93,1,83,0,0,2,0,19,4,9,0
黑丸嫩仙草（永和秀山店）,0.0,0,冰品飲料店,新北市中和區更生街5號,24.9963687,121.5217147,100,2,68,0,0,2,0,17,7,11,0
開喝茶飲專賣店,4.2,20,冰品飲料店,新北市永和區得和路301號,24.999725,121.5229172,106,2,74,0,0,0,0,20,8,14,0
島灰（一品豆花）,4.4,774,冰品飲料店,新北市永和區得和路373巷2號,24.9994869,121.5248292,86,2,47,0,0,0,0,16,7,15,0
好了啦超大杯(新店復興店),1.0,1,冰品飲料店,新北市新店區復興路93號,24.9875939,121.534715,64,2,51,2,1,3,1,7,4,8,0
李記紅茶冰-中和積穗店,4.7,15,無酒精飲料店,新北市中和區員山路150之13號,24.9982172,121.4814295,75,2,76,1,0,0,0,7,5,15,0
980D呷飽飲茶 土城裕民店,4.8,137,冰品飲料店,沒有地址,24.9864484,121.4516755,75,1,73,2,0,1,0,21,5,12,0
粒粒小姐新莊總店,4.8,696,冰品飲料店,新北市新莊區新莊路457-4號,25.0333408,121.449496,58,1,60,4,0,1,1,21,6,14,0
粒粒小姐（板橋新海店）,4.9,515,冰品飲料店,新北市板橋區新海路390號,25.0262872,121.4591495,57,2,89,1,0,2,1,16,5,15,0
果霸茶 中和南勢角,4.0,23,無酒精飲料店,新北市中和區興南路一段4號,24.9914447,121.5114762,96,1,118,0,0,3,1,15,5,3,0
茶顏果色Tea&Juice,3.6,36,冰品飲料店,新北市中和區興南路一段2號,24.9915885,121.5116057,97,1,115,0,0,3,1,14,4,3,0
Come Buy,3.5,16,冰品飲料店,"樓, No. 57號興南路一段中和區新北市235",24.9899055,121.5106515,96,1,114,0,0,3,1,12,5,1,0
12MINI快煮鍋 捷運南勢角店,3.8,770,冰品飲料店,新北市中和區興南路一段57之1號,24.9898817,121.510625,95,1,114,0,0,3,1,12,5,1,0
COMEBUY_中和大勇店,3.6,184,冰品飲料店,沒有地址,24.9936789,121.5172163,92,1,112,0,0,3,1,18,4,4,0
李記紅茶冰 安民店,4.6,93,冰品飲料店,新北市新店區安民街357號,24.9755671,121.5166276,36,0,10,0,0,0,0,5,2,3,0
連城新鮮水果汁,4.6,169,果汁,新北市中和區連城路347巷3號,24.9954967,121.4883893,82,3,71,1,0,1,0,6,3,16,0
樂樂冰沙 LE DRINK,4.9,7,冰品飲料店,新北市中和區中安街18號,25.0034267,121.5062011,117,2,150,3,1,1,1,23,4,13,0
萬波島嶼紅茶 Wanpo Tea Shop 永和頂溪店,3.3,192,冰品飲料店,沒有地址,25.0105055,121.5142714,110,4,153,2,1,2,1,36,11,20,0
兜著走飲品專賣店,4.3,19,冰品飲料店,台北市中山區龍江路356巷35號,25.066165,121.539459,21,6,59,1,0,2,0,14,4,8,0
茶研社,4.4,28,冰品飲料店,台北市中山區龍江路356巷21號,25.0661178,121.5400361,21,6,58,1,0,2,0,14,4,8,0
CoCo都可龍江2店,3.7,153,冰品飲料店,台北市中山區龍江路350號,25.0657739,121.5408219,22,6,60,0,0,1,0,13,4,8,0
台茶1號 台北龍江店,3.8,77,冰品飲料店,台北市中山區龍江路395號,25.0654125,121.5410777,24,6,61,0,0,1,0,13,3,8,0
COMEBUY_台北龍江,4.9,168,冰品飲料店,台北市中山區龍江路356巷13號,25.0661349,121.5403993,21,6,61,0,0,1,0,13,4,8,0
啾豆綠豆沙飲品（台北龍江店）,4.7,49,冰品飲料店,台北市中山區龍江路356巷32號,25.0659052,121.5395425,22,6,60,1,0,2,0,15,4,8,0
鮮果蜜 蜂蜜飲料店,0.0,0,冰品飲料店,台北市中山區五常街55號,25.064442,121.539764,26,7,76,1,0,2,0,17,3,9,0
汝?,4.7,404,冰品飲料店,台北市中山區合江街79-1號,25.0589729,121.5392789,32,12,120,1,1,4,0,22,6,11,0
李記古味紅茶冰合江店,4.6,16,冰品飲料店,"號 No. 142-1, 合江街中山區台北市10491",25.0598039,121.5391338,32,11,118,1,1,3,0,24,5,10,0
甘萃茶,4.8,22,冰品飲料店,台北市中山區龍江路293號1樓,25.0606327,121.5409167,34,10,97,1,1,3,0,21,5,10,0
水巷茶弄-台北松江店,4.0,119,冰品飲料店,台北市中山區松江路297巷18號,25.0609973,121.5346603,34,7,114,1,1,3,0,23,8,11,0
慕茗軒 Mumingxuan,4.6,25,冰品飲料店,台北市中山區農安街166巷1-1號1樓,25.0645039,121.5339444,29,8,100,1,0,2,1,20,6,9,0
茶多酚 自然茶飲,4.7,132,冰品飲料店,台北市中山區錦州街434號,25.060118,121.5428929,31,12,91,1,0,5,0,22,5,10,0
鬍子茶Who's Tea - 台北合江店,4.1,68,冰品飲料店,台北市中山區合江街150號,25.0599501,121.5391005,32,11,117,1,1,2,0,25,5,10,0
寶島紅茶冰台北吉林,4.4,38,冰品飲料店,台北市中山區吉林路405號,25.0660137,121.5305127,28,5,88,1,0,2,1,17,5,7,0
珍煮丹 台北合江店,4.0,197,冰品飲料店,台北市中山區合江街152-1號,25.060014,121.5391088,32,10,117,1,1,2,0,25,5,10,0
50嵐 合江店,3.4,400,冰品飲料店,台北市中山區合江街111號,25.0600205,121.5393154,33,11,117,1,1,3,0,23,5,10,0
思茶MissingTea 台北錦州店,4.9,248,冰品飲料店,台北市中山區錦州街358號,25.0601514,121.5396648,32,11,116,1,1,3,0,24,5,10,0
3C茶道,5.0,23,冰品飲料店,台北市中山區民族東路122號,25.0682097,121.5283809,22,3,69,1,0,2,1,20,6,6,0
貢茶 台北濱江店,4.7,162,冰品飲料店,台北市中山區建國北路三段113巷7弄2號,25.066959,121.5359965,17,6,71,1,0,1,0,15,4,7,0
思宅 SI·JAI ｜手搖飲｜??奶茶節金賞·伯爵鮮奶茶｜,4.7,199,冰品飲料店,台北市中山區松江路297巷6號,25.0609528,121.5341153,35,6,116,1,1,3,0,25,8,11,0
紅茶洋行-北市農安店,4.4,81,冰品飲料店,台北市中山區農安街73號,25.0649737,121.5283672,30,6,97,2,0,3,1,19,5,9,0
mr.agave龍舌蘭蜜甜點 x 果染茶飲,4.7,147,冰品飲料店,台北市中山區龍江路205號,25.0563398,121.5406698,31,13,122,2,2,4,1,24,8,18,0
水巷茶弄(台北長春店),4.0,220,冰品飲料店,台北市中山區長春路368號,25.054424,121.542664,27,19,119,4,3,3,1,25,8,20,0
綠豆仔 中山店,4.0,105,冰品飲料店,台北市中山區中原街138號,25.0639148,121.5289756,31,6,101,2,0,3,1,23,5,9,0
再睡5分鐘 - 台北錦州店,4.8,760,冰品飲料店,台北市中山區錦州街446號,25.0600344,121.5431882,28,12,91,1,0,4,0,22,6,10,0
迷客夏 臺北錦州店,3.4,224,冰品飲料店,台北市中山區錦州街353號,25.0602957,121.5400769,32,11,112,1,1,3,0,24,5,10,0
七盞茶 中山興安店,4.0,64,冰品飲料店,台北市中山區興安街53號,25.0563006,121.5414527,32,13,123,1,2,4,1,22,8,18,0
龜記茗品 中山錦州店,3.6,95,冰品飲料店,台北市中山區錦州街446-1號,25.0601152,121.5431835,28,12,91,1,0,4,0,22,6,10,0
壹本茶（中山店）,4.7,97,冰品飲料店,台北市中山區天祥路1號,25.0606148,121.5211114,57,33,154,2,2,5,3,21,15,12,0
邱太太甜品坊,4.6,825,冰品飲料店,台北市中山區龍江路382號,25.0667522,121.5408669,18,6,56,0,0,1,0,13,4,7,0
功夫茶 KUNGFUTEA 台北錦州店,4.7,837,冰品飲料店,台北市中山區錦州街410號,25.0601247,121.5417041,35,11,96,1,1,3,0,21,6,9,0
My嘟蘭手工綠豆沙牛乳 中山遼寧店,4.3,146,冰品飲料店,台北市中山區遼寧街216號,25.0562619,121.542012,29,14,121,1,2,3,1,23,9,18,0
麻古茶坊 錦州店(合江街),2.5,261,冰品飲料店,台北市中山區合江街154號,25.0600686,121.5391037,32,10,117,1,1,2,0,25,5,10,0
康青龍 台北長春店,3.7,132,冰品飲料店,"樓, No. 380號長春路中山區台北市10491",25.0544586,121.5433225,28,19,118,3,3,3,1,25,10,22,0
50嵐 吉林店,3.7,247,冰品飲料店,台北市中山區吉林路185號,25.0596898,121.5303953,37,7,152,2,2,3,1,28,6,9,0
幸福手作．天然愛玉,4.7,155,冰品飲料店,台北市中山區中原街105號,25.0615913,121.5290544,34,8,121,2,2,4,1,25,8,8,0
COMEBUY_台北錦州店,3.6,128,冰品飲料店,台北市中山區錦州街242號,25.0602549,121.533844,35,6,121,1,1,3,0,26,7,10,0
城市愛玉,4.4,498,冰品飲料店,台北市中山區雙城街17-2號中央攤販(榮昌藥局對面,25.065012,121.5243558,46,7,100,2,0,4,1,24,9,9,0
熊泰 泰式奶茶中山店,5.0,383,冰品飲料店,台北市中山區中山北路二段50巷25號1樓,25.0562899,121.521456,52,49,180,1,3,4,3,22,10,12,0
大豐冰品,4.7,312,冰品飲料店,台北市中山區吉林路265號,25.0619053,121.5303958,34,6,131,2,2,2,1,26,6,9,0
老賴茶棧台北晴光店,4.5,115,冰品飲料店,台北市中山區農安街24-5號1樓,25.0648647,121.5254305,42,7,104,2,0,5,1,22,7,13,0
迷客夏 臺北農安店,3.7,251,冰品飲料店,台北市中山區農安街12號,25.0647981,121.524051,46,7,107,2,0,4,1,24,9,9,0
巷仔裡黑糖粉圓,4.3,33,冰品飲料店,台北市中山區松江路330巷36-4號,25.0608962,121.531666,36,8,143,2,2,3,1,25,6,9,0
白巷子南京東店,3.9,89,冰品飲料店,台北市中山區南京東路二段27號,25.0523039,121.5289685,18,30,125,2,4,3,0,24,6,13,0
茶湯會 錦州店,3.1,325,冰品飲料店,台北市中山區錦州街250號,25.0601577,121.5341768,34,6,116,1,1,3,0,25,8,10,0
不如咖啡外帶店 BLUBLU togo,4.9,36,冰品飲料店,台北市中山區合江街180巷21號,25.0611674,121.5382483,31,9,108,1,1,2,0,26,5,10,0
可不可熟成紅茶-台北錦州店,3.5,254,冰品飲料店,台北市中山區錦州街335號,25.0603219,121.5390977,32,10,114,1,1,2,0,25,5,10,0
好了啦-台北中原店,4.3,8,冰品飲料店,台北市中山區中原街47號,25.0573334,121.5289374,37,23,166,3,3,4,1,24,8,10,0
滿食茶間 - 伊通店,4.5,480,冰品飲料店,台北市中山區伊通街131號,25.054481,121.5349077,23,8,126,2,2,3,1,30,7,17,0
五桐號WooTea 台北中山南西店,4.0,461,冰品飲料店,台北市大同區南京西路18巷6號,25.0518517,121.5201716,46,78,195,2,3,4,2,26,7,11,1
儒記-中山南西店,4.7,246,冰品飲料店,台北市中山區南京西路12巷13弄2號,25.0516486,121.5217737,38,78,189,2,3,4,2,22,8,12,1
牧方MooCubed x 松江,4.5,98,冰品飲料店,台北市中山區松江路287-2號1樓,25.0604579,121.533551,35,6,127,1,1,3,0,26,7,11,0
享冰,3.9,436,冰品飲料店,台北市中山區錦州街409號,25.060339,121.5415833,35,11,93,1,1,3,0,21,6,9,0
龜記茗品-中山晴光店,4.1,305,冰品飲料店,台北市中山區農安街18-3號,25.064824,121.5248039,45,7,103,2,0,4,1,23,9,9,0
清心福全長春二店,4.1,56,冰品飲料店,台北市中山區長春路120號,25.0547518,121.5303141,29,22,120,3,3,3,0,26,7,14,0
開心茶屋,4.5,21,冰品飲料店,台北市中山區雙城街10-1號,25.064313,121.524337,47,7,110,2,0,4,1,23,9,10,0
阿草的店,3.3,228,冰品飲料店,台北市中山區錦州街218號,25.0602814,121.5316082,35,8,143,2,2,3,1,24,6,10,0
茶湯會-台北南西三店,4.0,355,冰品飲料店,台北市中山區南京西路15號B1,25.0527485,121.5206836,43,77,181,2,3,4,2,24,8,11,1
阿清嫂冰店,4.1,12,冰品飲料店,台北市中山區錦州街222號,25.0602572,121.5318989,35,8,146,2,2,3,1,24,6,10,0
可不可熟成紅茶 台北晴光店,3.7,341,冰品飲料店,台北市中山區雙城街15-5號,25.0643126,121.5244498,47,7,109,2,0,4,1,23,9,10,0
康青龍 松江陽光店,3.4,110,冰品飲料店,台北市中山區松江路129-1號,25.0536892,121.5333655,20,6,112,2,2,2,0,30,7,17,0
楊桃汁,4.5,4,冰品飲料店,台北市中山區中原街132號,25.0630904,121.5289015,34,6,107,2,0,3,1,23,7,9,0
錨起來喝(台北晴光店),3.2,370,珍珠奶茶,台北市中山區雙城街17巷2號,25.0644541,121.5246453,47,7,107,2,0,4,1,23,9,10,0
叮哥茶飲-NEW長春店,4.3,222,冰品飲料店,台北市中山區伊通街127-4號,25.054292,121.534972,22,8,125,2,2,3,1,30,7,17,0
50嵐 晴光店,3.1,291,冰品飲料店,台北市中山區農安街22號,25.0648279,121.525104,44,8,104,2,0,5,1,22,9,11,0
李記紅茶冰 中山天津店,4.5,11,冰品飲料店,台北市中山區天津街59號,25.0512583,121.5234357,26,63,156,2,4,5,0,22,8,12,1
迷客夏 臺北中山南西店,3.7,152,冰品飲料店,台北市中山區中山北路一段140巷13號,25.0515173,121.5215043,38,78,196,2,3,4,2,21,8,12,1
麻古茶坊台北林森店,3.0,98,冰品飲料店,台北市中山區長春路31號,25.0551211,121.5255783,31,30,155,3,4,5,0,25,12,11,0
50嵐 雙連店,3.9,410,冰品飲料店,台北市中山區錦西街14號,25.0602912,121.5214967,53,32,159,1,2,5,3,21,14,12,0
高記冰品,4.4,27,冰品飲料店,台北市中山區雙城街10之1號,25.0648681,121.5242795,45,7,107,2,0,4,1,24,9,9,0
一沐日 吉林南京店,3.9,221,冰品飲料店,台北市中山區南京東路二段56號,25.0518773,121.5298145,14,30,132,1,4,3,0,26,8,14,0
可不可熟成紅茶-台北長春店,3.4,110,冰品飲料店,台北市中山區長春路182-2號1樓,25.0546701,121.5345204,26,8,122,2,2,3,0,29,7,16,0
發發 伊通牧場,4.5,726,冰品飲料店,台北市中山區伊通街75號,25.0526753,121.5349445,18,8,135,1,2,3,1,30,8,17,0
清原芋圓 南京東店,4.5,473,冰品飲料店,台北市松山區南京東路三段303巷6弄1之1號1樓,25.0525032,121.5470005,18,19,127,3,2,3,1,28,8,28,0
普林司飲品,4.1,104,冰品飲料店,台北市大同區赤峰街8巷2號,25.0538313,121.5191937,48,79,184,1,3,3,2,24,7,10,1
龜記茗品-台北伊通店,4.7,426,冰品飲料店,台北市中山區伊通街127-3號,25.0542429,121.5349749,22,8,127,2,2,3,1,30,7,17,0
CoCo都可 林森北店,3.9,306,冰品飲料店,台北市中山區林森北路438號,25.0604506,121.5254191,44,13,140,2,2,5,1,25,8,11,0
大苑子-台北錦西店,3.6,313,冰品飲料店,台北市中山區錦西街5號,25.0604169,121.5219597,51,32,160,2,2,5,3,20,14,13,0
烏弄原生茶飲(圓山店),3.7,77,冰品飲料店,台北市大同區酒泉街26號,25.0705958,121.519362,42,9,69,0,0,2,2,18,10,10,0
樂法 Le Phare 林森店,3.8,286,冰品飲料店,台北市中山區林森北路263-5號,25.0548232,121.5255805,31,30,151,3,4,5,0,24,12,11,0
TrueWin初韻 台北南西店,4.8,738,冰品飲料店,台北市大同區南京西路69號1樓,25.0531956,121.5188582,52,78,199,2,3,4,2,23,7,10,1
60+ Tea Shop 中山店,5.0,93,冰品飲料店,台北市大同區赤峰街33巷9號1樓,25.0542063,121.5199045,54,61,173,1,3,4,2,24,8,11,1
喫茶趣ToGo(民權西路店),2.0,7,冰品飲料店,台北市中山區民權西路60號,25.0626201,121.5201831,62,7,134,2,0,5,4,22,18,11,0
Pinatshiu ChiFeng 坪林手 赤峰,4.3,304,冰品飲料店,台北市大同區赤峰街53巷23號1樓,25.0562197,121.5203224,60,55,174,1,3,4,2,22,9,11,1
