name,star,comment,class,address,latitude,longitude,school_counts,drink_counts,train_counts,bus_counts,park_counts,night_market_counts,sports_facilities_counts,mrt_counts,movie_theater_counts,hospital_counts,district,neighborhood,縣市,鄉鎮市區,村里,納稅單位,綜合所得總額,平均數,中位數,第一分位數,第三分位數,標準差,變異係數,行政區_x,平勳人流,行政區_y,刊登平均,成交平均
果滋味綜合飲料店,4.9,17,冰品飲料店,新北市三峽區大德路39號1樓,24.9429943,121.3770984,6,41,0,80,9,0,2,0,0,0,三峽區,龍學里,新北市,三峽區,龍學里,5241.0,5693877.0,1086.0,711.0,302.0,1440.0,1297.72,119.45,三峽區,2038.200813195466,三峽區,1071.0,1059.0
可不可熟成紅茶-三峽北大店,3.9,191,冰品飲料店,新北市三峽區學成路229號,24.9425087,121.374965,5,48,0,80,9,0,3,0,0,0,三峽區,龍恩里,新北市,三峽區,龍恩里,2339.0,2473636.0,1058.0,635.0,267.0,1351.0,1325.52,125.34,三峽區,2038.200813195466,三峽區,1071.0,1059.0
茶聚CHAGE三峽和平店｜香片領導品牌＿新北手搖飲料店外帶外送加盟推薦│在地美食飲料茶飲創業加盟,4.7,354,冰品飲料店,新北市三峽區和平街107號,24.9382843,121.3703329,6,67,0,85,11,0,6,0,0,1,三峽區,永舘里,新北市,三峽區,永舘里,2113.0,1383722.0,655.0,432.0,206.0,812.0,864.02,131.94,三峽區,2038.200813195466,三峽區,1071.0,1059.0
50嵐 三峽北大店,4.3,101,冰品飲料店,新北市三峽區大學路129號1樓,24.9436023,121.3745389,5,42,0,79,9,0,3,0,0,0,三峽區,龍恩里,新北市,三峽區,龍恩里,2339.0,2473636.0,1058.0,635.0,267.0,1351.0,1325.52,125.34,三峽區,2038.200813195466,三峽區,1071.0,1059.0
五桐號WooTEA 三峽北大店,3.7,62,冰品飲料店,新北市三峽區國學街39號,24.942509,121.3726773,6,54,0,75,8,0,5,0,0,0,三峽區,龍恩里,新北市,三峽區,龍恩里,2339.0,2473636.0,1058.0,635.0,267.0,1351.0,1325.52,125.34,三峽區,2038.200813195466,三峽區,1071.0,1059.0
CoCo都可 三峽北大店,4.1,192,冰品飲料店,新北市三峽區大學路143號,24.9437545,121.3741646,5,42,0,79,9,0,3,0,0,0,三峽區,龍恩里,新北市,三峽區,龍恩里,2339.0,2473636.0,1058.0,635.0,267.0,1351.0,1325.52,125.34,三峽區,2038.200813195466,三峽區,1071.0,1059.0
紅茶洋行-三峽復興店,4.5,28,冰品飲料店,新北市三峽區復興路36-8號,24.9367654,121.373994,7,74,0,96,14,0,2,0,0,2,三峽區,龍埔里,新北市,三峽區,龍埔里,2836.0,1869282.0,659.0,439.0,208.0,866.0,760.15,115.33,三峽區,2038.200813195466,三峽區,1071.0,1059.0
珍煮丹 三峽北大店,3.9,221,冰品飲料店,新北市三峽區大學路145號,24.9439864,121.3741868,5,42,0,77,9,0,3,0,0,0,三峽區,龍學里,新北市,三峽區,龍學里,5241.0,5693877.0,1086.0,711.0,302.0,1440.0,1297.72,119.45,三峽區,2038.200813195466,三峽區,1071.0,1059.0
CoCo都可 三峽和平店,4.0,232,冰品飲料店,新北市三峽區和平街40號,24.9373577,121.37032,6,66,0,83,11,0,6,0,0,1,三峽區,永舘里,新北市,三峽區,永舘里,2113.0,1383722.0,655.0,432.0,206.0,812.0,864.02,131.94,三峽區,2038.200813195466,三峽區,1071.0,1059.0
老賴茶棧三峽老街店,4.3,95,冰品飲料店,新北市三峽區民權街5號,24.9345784,121.3704512,7,70,0,96,12,0,4,0,0,2,三峽區,永舘里,新北市,三峽區,永舘里,2113.0,1383722.0,655.0,432.0,206.0,812.0,864.02,131.94,三峽區,2038.200813195466,三峽區,1071.0,1059.0
無飲國學店,4.2,41,冰品飲料店,新北市三峽區國學街28號,24.9421522,121.3731927,6,58,0,74,8,0,5,0,0,0,三峽區,龍恩里,新北市,三峽區,龍恩里,2339.0,2473636.0,1058.0,635.0,267.0,1351.0,1325.52,125.34,三峽區,2038.200813195466,三峽區,1071.0,1059.0
清心福全三峽大學店（來電外送26731238免外送費）,4.8,144,冰品飲料店,新北市三峽區國際一街36號,24.9426896,121.3734502,6,51,0,75,9,0,5,0,0,0,三峽區,龍恩里,新北市,三峽區,龍恩里,2339.0,2473636.0,1058.0,635.0,267.0,1351.0,1325.52,125.34,三峽區,2038.200813195466,三峽區,1071.0,1059.0
來壺果飲,4.6,87,冰品飲料店,新北市三峽區大德路153號,24.9451932,121.37561,6,32,0,69,9,0,2,0,0,0,三峽區,龍學里,新北市,三峽區,龍學里,5241.0,5693877.0,1086.0,711.0,302.0,1440.0,1297.72,119.45,三峽區,2038.200813195466,三峽區,1071.0,1059.0
清心福全三峽文化店-珍珠奶茶手搖飲料專賣店,3.6,58,冰品飲料店,新北市三峽區文化路16號,24.9358682,121.3733162,7,73,0,97,14,0,3,0,0,2,三峽區,永舘里,新北市,三峽區,永舘里,2113.0,1383722.0,655.0,432.0,206.0,812.0,864.02,131.94,三峽區,2038.200813195466,三峽區,1071.0,1059.0
泡泡龍,3.9,102,冰品飲料店,新北市三峽區民生街171號,24.934743,121.3723595,8,70,0,99,13,0,4,0,0,2,三峽區,永舘里,新北市,三峽區,永舘里,2113.0,1383722.0,655.0,432.0,206.0,812.0,864.02,131.94,三峽區,2038.200813195466,三峽區,1071.0,1059.0
胖茶 茶飲專賣店 /三峽飲料推薦/三峽特色飲料/三峽必喝/鮮萃黑茶/黑奶茶/仙草凍拿鐵,4.4,43,冰品飲料店,新北市三峽區光明路94號,24.928534,121.3756757,4,45,0,79,9,0,0,0,0,2,三峽區,介壽里,台北市,松山區,介壽里,1457.0,1989194.0,1365.0,762.0,279.0,1574.0,2176.72,159.44,三峽區,2038.200813195466,三峽區,1071.0,1059.0
胖茶 茶飲專賣店 /三峽飲料推薦/三峽特色飲料/三峽必喝/鮮萃黑茶/黑奶茶/仙草凍拿鐵,4.4,43,冰品飲料店,新北市三峽區光明路94號,24.928534,121.3756757,4,45,0,79,9,0,0,0,0,2,三峽區,介壽里,新北市,三重區,介壽里,334.0,201753.0,604.0,385.0,173.0,676.0,738.9,122.32,三峽區,2038.200813195466,三峽區,1071.0,1059.0
胖茶 茶飲專賣店 /三峽飲料推薦/三峽特色飲料/三峽必喝/鮮萃黑茶/黑奶茶/仙草凍拿鐵,4.4,43,冰品飲料店,新北市三峽區光明路94號,24.928534,121.3756757,4,45,0,79,9,0,0,0,0,2,三峽區,介壽里,新北市,板橋區,介壽里,880.0,646016.0,734.0,460.0,222.0,989.0,814.97,111.01,三峽區,2038.200813195466,三峽區,1071.0,1059.0
胖茶 茶飲專賣店 /三峽飲料推薦/三峽特色飲料/三峽必喝/鮮萃黑茶/黑奶茶/仙草凍拿鐵,4.4,43,冰品飲料店,新北市三峽區光明路94號,24.928534,121.3756757,4,45,0,79,9,0,0,0,0,2,三峽區,介壽里,新北市,三峽區,介壽里,1717.0,866095.0,504.0,361.0,188.0,633.0,741.9,147.08,三峽區,2038.200813195466,三峽區,1071.0,1059.0
鮮茶道(三峽文化店),3.6,141,冰品飲料店,新北市三峽區文化路41號,24.9360559,121.3724651,7,72,0,99,13,0,4,0,0,2,三峽區,永舘里,新北市,三峽區,永舘里,2113.0,1383722.0,655.0,432.0,206.0,812.0,864.02,131.94,三峽區,2038.200813195466,三峽區,1071.0,1059.0
拾?茶屋 三峽中華店,4.9,239,冰品飲料店,新北市三峽區中華路37號,24.9311286,121.3728445,7,59,0,98,13,0,2,0,0,2,三峽區,安溪里,新北市,三峽區,安溪里,2096.0,1219994.0,582.0,403.0,200.0,728.0,979.69,168.31,三峽區,2038.200813195466,三峽區,1071.0,1059.0
清水冬瓜王 三峽店,4.4,567,冰品飲料店,新北市三峽區長福街15號,24.9338713,121.3705682,7,64,0,101,13,0,4,0,0,2,三峽區,秀川里,新北市,三峽區,秀川里,160.0,101248.0,633.0,408.0,202.0,821.0,722.66,114.2,三峽區,2038.200813195466,三峽區,1071.0,1059.0
有料搖搖茶yoyocha-新北三峽店,4.4,27,珍珠奶茶,新北市三峽區大同路45號1樓,24.9277724,121.3760445,4,42,0,71,9,0,0,0,0,2,三峽區,中正里,台北市,松山區,中正里,3425.0,5369060.0,1568.0,842.0,344.0,1900.0,2415.98,154.12,三峽區,2038.200813195466,三峽區,1071.0,1059.0
有料搖搖茶yoyocha-新北三峽店,4.4,27,珍珠奶茶,新北市三峽區大同路45號1樓,24.9277724,121.3760445,4,42,0,71,9,0,0,0,0,2,三峽區,中正里,新北市,三重區,中正里,383.0,237977.0,621.0,423.0,211.0,760.0,777.58,125.14,三峽區,2038.200813195466,三峽區,1071.0,1059.0
有料搖搖茶yoyocha-新北三峽店,4.4,27,珍珠奶茶,新北市三峽區大同路45號1樓,24.9277724,121.3760445,4,42,0,71,9,0,0,0,0,2,三峽區,中正里,新北市,新店區,中正里,1987.0,1760949.0,886.0,542.0,256.0,1066.0,1167.38,131.72,三峽區,2038.200813195466,三峽區,1071.0,1059.0
有料搖搖茶yoyocha-新北三峽店,4.4,27,珍珠奶茶,新北市三峽區大同路45號1樓,24.9277724,121.3760445,4,42,0,71,9,0,0,0,0,2,三峽區,中正里,新北市,板橋區,中正里,2114.0,1795601.0,849.0,586.0,288.0,1130.0,907.94,106.89,三峽區,2038.200813195466,三峽區,1071.0,1059.0
有料搖搖茶yoyocha-新北三峽店,4.4,27,珍珠奶茶,新北市三峽區大同路45號1樓,24.9277724,121.3760445,4,42,0,71,9,0,0,0,0,2,三峽區,中正里,新北市,三峽區,中正里,1309.0,686956.0,525.0,363.0,196.0,682.0,545.46,103.94,三峽區,2038.200813195466,三峽區,1071.0,1059.0
有料搖搖茶yoyocha-新北三峽店,4.4,27,珍珠奶茶,新北市三峽區大同路45號1樓,24.9277724,121.3760445,4,42,0,71,9,0,0,0,0,2,三峽區,中正里,新北市,中和區,中正里,1079.0,658102.0,610.0,403.0,206.0,781.0,736.57,120.77,三峽區,2038.200813195466,三峽區,1071.0,1059.0
有料搖搖茶yoyocha-新北三峽店,4.4,27,珍珠奶茶,新北市三峽區大同路45號1樓,24.9277724,121.3760445,4,42,0,71,9,0,0,0,0,2,三峽區,中正里,新北市,土城區,中正里,1027.0,692695.0,674.0,431.0,205.0,871.0,794.81,117.84,三峽區,2038.200813195466,三峽區,1071.0,1059.0
奶霸Milk Bar-鍋煮奶茶創始店 三峽飲料 三峽飲料推薦 三峽手搖飲 三峽咖啡 三峽下午茶,5.0,24,冰品飲料店,新北市三峽區光明路96號,24.9282042,121.3757325,4,44,0,78,9,0,0,0,0,2,三峽區,介壽里,台北市,松山區,介壽里,1457.0,1989194.0,1365.0,762.0,279.0,1574.0,2176.72,159.44,三峽區,2038.200813195466,三峽區,1071.0,1059.0
奶霸Milk Bar-鍋煮奶茶創始店 三峽飲料 三峽飲料推薦 三峽手搖飲 三峽咖啡 三峽下午茶,5.0,24,冰品飲料店,新北市三峽區光明路96號,24.9282042,121.3757325,4,44,0,78,9,0,0,0,0,2,三峽區,介壽里,新北市,三重區,介壽里,334.0,201753.0,604.0,385.0,173.0,676.0,738.9,122.32,三峽區,2038.200813195466,三峽區,1071.0,1059.0
奶霸Milk Bar-鍋煮奶茶創始店 三峽飲料 三峽飲料推薦 三峽手搖飲 三峽咖啡 三峽下午茶,5.0,24,冰品飲料店,新北市三峽區光明路96號,24.9282042,121.3757325,4,44,0,78,9,0,0,0,0,2,三峽區,介壽里,新北市,板橋區,介壽里,880.0,646016.0,734.0,460.0,222.0,989.0,814.97,111.01,三峽區,2038.200813195466,三峽區,1071.0,1059.0
奶霸Milk Bar-鍋煮奶茶創始店 三峽飲料 三峽飲料推薦 三峽手搖飲 三峽咖啡 三峽下午茶,5.0,24,冰品飲料店,新北市三峽區光明路96號,24.9282042,121.3757325,4,44,0,78,9,0,0,0,0,2,三峽區,介壽里,新北市,三峽區,介壽里,1717.0,866095.0,504.0,361.0,188.0,633.0,741.9,147.08,三峽區,2038.200813195466,三峽區,1071.0,1059.0
咕茶,4.9,121,冰品飲料店,新北市三峽區光明路100之1號,24.9281741,121.3760056,4,44,0,78,9,0,0,0,0,2,三峽區,介壽里,台北市,松山區,介壽里,1457.0,1989194.0,1365.0,762.0,279.0,1574.0,2176.72,159.44,三峽區,2038.200813195466,三峽區,1071.0,1059.0
咕茶,4.9,121,冰品飲料店,新北市三峽區光明路100之1號,24.9281741,121.3760056,4,44,0,78,9,0,0,0,0,2,三峽區,介壽里,新北市,三重區,介壽里,334.0,201753.0,604.0,385.0,173.0,676.0,738.9,122.32,三峽區,2038.200813195466,三峽區,1071.0,1059.0
咕茶,4.9,121,冰品飲料店,新北市三峽區光明路100之1號,24.9281741,121.3760056,4,44,0,78,9,0,0,0,0,2,三峽區,介壽里,新北市,板橋區,介壽里,880.0,646016.0,734.0,460.0,222.0,989.0,814.97,111.01,三峽區,2038.200813195466,三峽區,1071.0,1059.0
咕茶,4.9,121,冰品飲料店,新北市三峽區光明路100之1號,24.9281741,121.3760056,4,44,0,78,9,0,0,0,0,2,三峽區,介壽里,新北市,三峽區,介壽里,1717.0,866095.0,504.0,361.0,188.0,633.0,741.9,147.08,三峽區,2038.200813195466,三峽區,1071.0,1059.0
清心福全三峽大義店,3.5,107,珍珠奶茶,新北市三峽區大義路11號,24.9437014,121.3788895,5,28,0,70,9,0,2,0,0,0,三峽區,龍學里,新北市,三峽區,龍學里,5241.0,5693877.0,1086.0,711.0,302.0,1440.0,1297.72,119.45,三峽區,2038.200813195466,三峽區,1071.0,1059.0
太元茶室 Est.2021,4.7,119,冰品飲料店,新北市三峽區國學街8號,24.9415506,121.3736498,6,64,0,83,9,0,6,0,0,0,三峽區,龍恩里,新北市,三峽區,龍恩里,2339.0,2473636.0,1058.0,635.0,267.0,1351.0,1325.52,125.34,三峽區,2038.200813195466,三峽區,1071.0,1059.0
三峽冰鎮,4.0,218,冰品飲料店,新北市三峽區民生街108號,24.93532,121.373318,7,73,0,100,13,0,2,0,0,2,三峽區,永舘里,新北市,三峽區,永舘里,2113.0,1383722.0,655.0,432.0,206.0,812.0,864.02,131.94,三峽區,2038.200813195466,三峽區,1071.0,1059.0
統一茗茶-顏選製茶所(YANXUAN)|碧螺春綠茶|蜜香紅茶|白茶冠軍|東方美人|烏龍茶|金萱|四季春|老茶|茶糖|牛軋糖|雪花餅|茶酥|茶梅|苦茶油|三峽伴手禮|茶葉禮盒|批發零售|,4.9,43,茶葉店,新北市三峽區竹崙路23號,24.922695,121.4292553,0,7,0,27,1,0,0,0,0,0,三峽區,竹崙里,新北市,三峽區,竹崙里,405.0,220888.0,545.0,343.0,163.0,563.0,897.43,164.54,三峽區,2038.200813195466,三峽區,1071.0,1059.0
Mai cha嘜ㄔㄚ、飲品專賣店,5.0,159,冰品飲料店,新北市三峽區介壽路一段6號黃昏市場鍾予原味旁,24.9334478,121.3745244,8,65,0,101,14,0,2,0,0,2,三峽區,礁溪里,新北市,三峽區,礁溪里,1743.0,1058019.0,607.0,423.0,214.0,779.0,620.42,102.21,三峽區,2038.200813195466,三峽區,1071.0,1059.0
好了啦紅茶冰-三峽大同,3.0,1,冰品飲料店,新北市三峽區大同路69號,24.9272751,121.375194,4,41,0,74,9,0,0,0,0,2,三峽區,中正里,台北市,松山區,中正里,3425.0,5369060.0,1568.0,842.0,344.0,1900.0,2415.98,154.12,三峽區,2038.200813195466,三峽區,1071.0,1059.0
好了啦紅茶冰-三峽大同,3.0,1,冰品飲料店,新北市三峽區大同路69號,24.9272751,121.375194,4,41,0,74,9,0,0,0,0,2,三峽區,中正里,新北市,三重區,中正里,383.0,237977.0,621.0,423.0,211.0,760.0,777.58,125.14,三峽區,2038.200813195466,三峽區,1071.0,1059.0
好了啦紅茶冰-三峽大同,3.0,1,冰品飲料店,新北市三峽區大同路69號,24.9272751,121.375194,4,41,0,74,9,0,0,0,0,2,三峽區,中正里,新北市,新店區,中正里,1987.0,1760949.0,886.0,542.0,256.0,1066.0,1167.38,131.72,三峽區,2038.200813195466,三峽區,1071.0,1059.0
好了啦紅茶冰-三峽大同,3.0,1,冰品飲料店,新北市三峽區大同路69號,24.9272751,121.375194,4,41,0,74,9,0,0,0,0,2,三峽區,中正里,新北市,板橋區,中正里,2114.0,1795601.0,849.0,586.0,288.0,1130.0,907.94,106.89,三峽區,2038.200813195466,三峽區,1071.0,1059.0
好了啦紅茶冰-三峽大同,3.0,1,冰品飲料店,新北市三峽區大同路69號,24.9272751,121.375194,4,41,0,74,9,0,0,0,0,2,三峽區,中正里,新北市,三峽區,中正里,1309.0,686956.0,525.0,363.0,196.0,682.0,545.46,103.94,三峽區,2038.200813195466,三峽區,1071.0,1059.0
好了啦紅茶冰-三峽大同,3.0,1,冰品飲料店,新北市三峽區大同路69號,24.9272751,121.375194,4,41,0,74,9,0,0,0,0,2,三峽區,中正里,新北市,中和區,中正里,1079.0,658102.0,610.0,403.0,206.0,781.0,736.57,120.77,三峽區,2038.200813195466,三峽區,1071.0,1059.0
好了啦紅茶冰-三峽大同,3.0,1,冰品飲料店,新北市三峽區大同路69號,24.9272751,121.375194,4,41,0,74,9,0,0,0,0,2,三峽區,中正里,新北市,土城區,中正里,1027.0,692695.0,674.0,431.0,205.0,871.0,794.81,117.84,三峽區,2038.200813195466,三峽區,1071.0,1059.0
50嵐 三峽光明店,4.8,116,冰品飲料店,新北市三峽區光明路100-3號,24.9281327,121.3760502,4,44,0,78,9,0,0,0,0,2,三峽區,介壽里,台北市,松山區,介壽里,1457.0,1989194.0,1365.0,762.0,279.0,1574.0,2176.72,159.44,三峽區,2038.200813195466,三峽區,1071.0,1059.0
50嵐 三峽光明店,4.8,116,冰品飲料店,新北市三峽區光明路100-3號,24.9281327,121.3760502,4,44,0,78,9,0,0,0,0,2,三峽區,介壽里,新北市,三重區,介壽里,334.0,201753.0,604.0,385.0,173.0,676.0,738.9,122.32,三峽區,2038.200813195466,三峽區,1071.0,1059.0
50嵐 三峽光明店,4.8,116,冰品飲料店,新北市三峽區光明路100-3號,24.9281327,121.3760502,4,44,0,78,9,0,0,0,0,2,三峽區,介壽里,新北市,板橋區,介壽里,880.0,646016.0,734.0,460.0,222.0,989.0,814.97,111.01,三峽區,2038.200813195466,三峽區,1071.0,1059.0
50嵐 三峽光明店,4.8,116,冰品飲料店,新北市三峽區光明路100-3號,24.9281327,121.3760502,4,44,0,78,9,0,0,0,0,2,三峽區,介壽里,新北市,三峽區,介壽里,1717.0,866095.0,504.0,361.0,188.0,633.0,741.9,147.08,三峽區,2038.200813195466,三峽區,1071.0,1059.0
COMEBUY_三峽光明店,4.2,52,冰品飲料店,新北市三峽區光明路17號,24.9313579,121.37325,7,59,0,96,13,0,2,0,0,2,三峽區,礁溪里,新北市,三峽區,礁溪里,1743.0,1058019.0,607.0,423.0,214.0,779.0,620.42,102.21,三峽區,2038.200813195466,三峽區,1071.0,1059.0
自己來 紅茶鮮乳 三峽愛國店,3.6,19,冰品飲料店,新北市三峽區愛國路32-10號,24.932998,121.3748773,8,58,0,99,13,0,2,0,0,2,三峽區,礁溪里,新北市,三峽區,礁溪里,1743.0,1058019.0,607.0,423.0,214.0,779.0,620.42,102.21,三峽區,2038.200813195466,三峽區,1071.0,1059.0
樹林青草茶,4.7,12,冰品飲料店,新北市三峽區民族街,24.9316832,121.3686455,6,59,0,95,10,0,3,0,0,2,三峽區,八張里,新北市,三峽區,八張里,1081.0,635259.0,588.0,394.0,198.0,742.0,746.94,127.11,三峽區,2038.200813195466,三峽區,1071.0,1059.0
森木坊古早冰,4.7,169,冰品飲料店,新北市三峽區秀川街88號,24.9334467,121.370201,7,61,0,98,13,0,4,0,0,2,三峽區,三峽里,新北市,三峽區,三峽里,70.0,41129.0,588.0,426.0,273.0,759.0,558.71,95.09,三峽區,2038.200813195466,三峽區,1071.0,1059.0
得正#三峽文化計劃,5.0,7,冰品飲料店,新北市三峽區文化路60號,24.9362408,121.3724963,7,71,0,98,13,0,4,0,0,2,三峽區,永舘里,新北市,三峽區,永舘里,2113.0,1383722.0,655.0,432.0,206.0,812.0,864.02,131.94,三峽區,2038.200813195466,三峽區,1071.0,1059.0
市民小站三峽愛國店,4.3,41,冰品飲料店,新北市三峽區愛國路32-8號,24.9330274,121.3745909,8,58,0,99,13,0,2,0,0,2,三峽區,礁溪里,新北市,三峽區,礁溪里,1743.0,1058019.0,607.0,423.0,214.0,779.0,620.42,102.21,三峽區,2038.200813195466,三峽區,1071.0,1059.0
可不可熟成紅茶-三峽文化店,4.0,39,冰品飲料店,新北市三峽區文化路5號,24.9355342,121.3732848,8,73,0,100,14,0,2,0,0,2,三峽區,永舘里,新北市,三峽區,永舘里,2113.0,1383722.0,655.0,432.0,206.0,812.0,864.02,131.94,三峽區,2038.200813195466,三峽區,1071.0,1059.0
涼水庫愛國店,5.0,1,冰品飲料店,新北市三峽區愛國路2號,24.933996,121.3741324,8,69,0,102,14,0,2,0,0,2,三峽區,礁溪里,新北市,三峽區,礁溪里,1743.0,1058019.0,607.0,423.0,214.0,779.0,620.42,102.21,三峽區,2038.200813195466,三峽區,1071.0,1059.0
好了啦-三峽愛國店,5.0,1,冰品飲料店,新北市三峽區愛國路24號對面號,24.9333949,121.3742639,8,63,0,102,14,0,2,0,0,2,三峽區,礁溪里,新北市,三峽區,礁溪里,1743.0,1058019.0,607.0,423.0,214.0,779.0,620.42,102.21,三峽區,2038.200813195466,三峽區,1071.0,1059.0
50嵐 三峽文化店,3.9,491,冰品飲料店,新北市三峽區文化路26號,24.9360019,121.3732319,7,73,0,97,14,0,4,0,0,2,三峽區,永舘里,新北市,三峽區,永舘里,2113.0,1383722.0,655.0,432.0,206.0,812.0,864.02,131.94,三峽區,2038.200813195466,三峽區,1071.0,1059.0
愛茶咖 i - Cha Ca Coffee & Tea,4.9,7,冰品飲料店,新北市三峽區民權街117號,24.932275,121.369141,7,59,0,97,12,0,4,0,0,2,三峽區,三峽里,新北市,三峽區,三峽里,70.0,41129.0,588.0,426.0,273.0,759.0,558.71,95.09,三峽區,2038.200813195466,三峽區,1071.0,1059.0
龜記茗品-三峽文化店,4.5,146,冰品飲料店,新北市三峽區文化路7號,24.9354679,121.373238,8,73,0,100,13,0,2,0,0,2,三峽區,永舘里,新北市,三峽區,永舘里,2113.0,1383722.0,655.0,432.0,206.0,812.0,864.02,131.94,三峽區,2038.200813195466,三峽區,1071.0,1059.0
好了啦-紅茶冰,4.0,5,冰品飲料店,新北市三峽區正義街61號號,24.918473,121.3692115,2,3,0,49,1,0,0,0,0,0,三峽區,中溪里,新北市,永和區,中溪里,1622.0,1351143.0,833.0,498.0,224.0,1051.0,1031.92,123.88,三峽區,2038.200813195466,三峽區,1071.0,1059.0
好了啦！三峽和平店,3.0,2,冰品飲料店,新北市三峽區和平街60號,24.9378497,121.3704018,6,68,0,85,11,0,6,0,0,1,三峽區,永舘里,新北市,三峽區,永舘里,2113.0,1383722.0,655.0,432.0,206.0,812.0,864.02,131.94,三峽區,2038.200813195466,三峽區,1071.0,1059.0
三峽青草茶,0.0,0,冰品飲料店,新北市三峽區民生街178號門口附近,24.935002,121.37129,8,70,0,98,12,0,4,0,0,2,三峽區,永舘里,新北市,三峽區,永舘里,2113.0,1383722.0,655.0,432.0,206.0,812.0,864.02,131.94,三峽區,2038.200813195466,三峽區,1071.0,1059.0
上宇林三峽和平店,4.5,82,冰品飲料店,新北市三峽區和平街24之3號,24.9362858,121.3703514,7,65,0,88,12,0,4,0,0,1,三峽區,永舘里,新北市,三峽區,永舘里,2113.0,1383722.0,655.0,432.0,206.0,812.0,864.02,131.94,三峽區,2038.200813195466,三峽區,1071.0,1059.0
陳Q古早黑砂糖剉冰 三峽光明店,3.9,61,冰品飲料店,"No. 29-1號, 光明路三峽區新北市237",24.9310724,121.3734778,7,58,0,94,13,0,2,0,0,2,三峽區,礁溪里,新北市,三峽區,礁溪里,1743.0,1058019.0,607.0,423.0,214.0,779.0,620.42,102.21,三峽區,2038.200813195466,三峽區,1071.0,1059.0
現帶茶,4.7,10,冰品飲料店,新北市三峽區和平街73號,24.9371852,121.3701056,6,66,0,82,10,0,5,0,0,1,三峽區,永舘里,新北市,三峽區,永舘里,2113.0,1383722.0,655.0,432.0,206.0,812.0,864.02,131.94,三峽區,2038.200813195466,三峽區,1071.0,1059.0
大苑子,3.5,221,冰品飲料店,新北市三峽區和平街101號,24.9381192,121.3702556,6,68,0,85,11,0,6,0,0,1,三峽區,永舘里,新北市,三峽區,永舘里,2113.0,1383722.0,655.0,432.0,206.0,812.0,864.02,131.94,三峽區,2038.200813195466,三峽區,1071.0,1059.0
一枝冰商行,4.7,7,冰品飲料店,新北市三峽區嘉添路181-24號號1樓,24.9108246,121.3710066,3,2,0,45,0,0,0,0,0,0,三峽區,嘉添里,新北市,三峽區,嘉添里,524.0,304771.0,582.0,336.0,178.0,665.0,984.23,169.22,三峽區,2038.200813195466,三峽區,1071.0,1059.0
吉品仙草小棧,4.5,127,冰品飲料店,新北市三峽區中山路129號,24.9360427,121.3652347,5,49,0,61,7,0,4,0,0,1,三峽區,鳶山里,新北市,三峽區,鳶山里,2896.0,1892242.0,653.0,415.0,202.0,804.0,816.73,125.0,三峽區,2038.200813195466,三峽區,1071.0,1059.0
好了啦三峽國光店,0.0,0,冰品飲料店,新北市三峽區國光街34號,24.9376488,121.3750729,7,67,0,93,13,0,2,0,0,2,三峽區,龍埔里,新北市,三峽區,龍埔里,2836.0,1869282.0,659.0,439.0,208.0,866.0,760.15,115.33,三峽區,2038.200813195466,三峽區,1071.0,1059.0
三峽 古早味黑砂糖剉冰,3.1,7,冰品飲料店,新北市三峽區中山路4號1樓,24.9344364,121.3698974,6,66,0,96,12,0,4,0,0,2,三峽區,永舘里,新北市,三峽區,永舘里,2113.0,1383722.0,655.0,432.0,206.0,812.0,864.02,131.94,三峽區,2038.200813195466,三峽區,1071.0,1059.0
期香茶棧三峽店,4.0,25,無酒精飲料店,新北市三峽區民生街193號,24.9347746,121.3718143,8,70,0,98,13,0,4,0,0,3,三峽區,秀川里,新北市,三峽區,秀川里,160.0,101248.0,633.0,408.0,202.0,821.0,722.66,114.2,三峽區,2038.200813195466,三峽區,1071.0,1059.0
7吋Qi Inch 甜品屋/冰棒/芝麻糊 三峽本店,4.7,14,冰品飲料店,新北市三峽區中華路74-1號,24.9293109,121.3714508,5,57,0,89,11,0,2,0,0,2,三峽區,安溪里,新北市,三峽區,安溪里,2096.0,1219994.0,582.0,403.0,200.0,728.0,979.69,168.31,三峽區,2038.200813195466,三峽區,1071.0,1059.0
迷客夏Milksha 新北三峽北大店,3.6,321,冰品飲料店,新北市三峽區國際二街33號1樓,24.9432073,121.3726224,6,49,0,73,8,0,5,0,0,0,三峽區,龍恩里,新北市,三峽區,龍恩里,2339.0,2473636.0,1058.0,635.0,267.0,1351.0,1325.52,125.34,三峽區,2038.200813195466,三峽區,1071.0,1059.0
雙予綿綿冰（原峽客冰品),4.3,15,冰品飲料店,新北市三峽區中山路141號,24.9361434,121.365088,5,48,0,60,6,0,4,0,0,1,三峽區,鳶山里,新北市,三峽區,鳶山里,2896.0,1892242.0,653.0,415.0,202.0,804.0,816.73,125.0,三峽區,2038.200813195466,三峽區,1071.0,1059.0
芋見豆花,4.7,132,冰品飲料店,新北市三峽區文化路246號,24.9359211,121.367499,6,60,0,75,9,0,4,0,0,1,三峽區,鳶山里,新北市,三峽區,鳶山里,2896.0,1892242.0,653.0,415.0,202.0,804.0,816.73,125.0,三峽區,2038.200813195466,三峽區,1071.0,1059.0
呷冰站(台灣鮮果手工冰),4.4,216,冰品飲料店,新北市三峽區國際一街82號1 樓,24.9415729,121.3712196,6,61,0,83,9,0,6,0,0,1,三峽區,龍恩里,新北市,三峽區,龍恩里,2339.0,2473636.0,1058.0,635.0,267.0,1351.0,1325.52,125.34,三峽區,2038.200813195466,三峽區,1071.0,1059.0
Bella甜品專賣北大店,4.6,47,冰品飲料店,新北市三峽區國際一街27號,24.9424157,121.3737864,6,53,0,78,9,0,5,0,0,0,三峽區,龍恩里,新北市,三峽區,龍恩里,2339.0,2473636.0,1058.0,635.0,267.0,1351.0,1325.52,125.34,三峽區,2038.200813195466,三峽區,1071.0,1059.0
安安冰?室,4.9,40,冰品飲料店,新北市三峽區文化路193號,24.935601,121.3667312,5,56,0,70,9,0,4,0,0,1,三峽區,鳶山里,新北市,三峽區,鳶山里,2896.0,1892242.0,653.0,415.0,202.0,804.0,816.73,125.0,三峽區,2038.200813195466,三峽區,1071.0,1059.0
三峽老街冰店,4.4,91,冰品飲料店,新北市三峽區民權街10號,24.9346258,121.3702061,7,70,0,96,12,0,4,0,0,2,三峽區,永舘里,新北市,三峽區,永舘里,2113.0,1383722.0,655.0,432.0,206.0,812.0,864.02,131.94,三峽區,2038.200813195466,三峽區,1071.0,1059.0
ㄚ冰師古早香紅茶冰,3.7,25,飲品分銷商,新北市三峽區大勇路80號,24.9360841,121.3670906,6,60,0,72,9,0,4,0,0,1,三峽區,鳶山里,新北市,三峽區,鳶山里,2896.0,1892242.0,653.0,415.0,202.0,804.0,816.73,125.0,三峽區,2038.200813195466,三峽區,1071.0,1059.0
唐香蘭涼麵｜真果粉圓｜蔬食手捲,4.8,58,冰品飲料店,新北市三峽區大同路56號,24.9286129,121.376951,3,44,0,69,8,0,0,0,0,2,三峽區,介壽里,台北市,松山區,介壽里,1457.0,1989194.0,1365.0,762.0,279.0,1574.0,2176.72,159.44,三峽區,2038.200813195466,三峽區,1071.0,1059.0
唐香蘭涼麵｜真果粉圓｜蔬食手捲,4.8,58,冰品飲料店,新北市三峽區大同路56號,24.9286129,121.376951,3,44,0,69,8,0,0,0,0,2,三峽區,介壽里,新北市,三重區,介壽里,334.0,201753.0,604.0,385.0,173.0,676.0,738.9,122.32,三峽區,2038.200813195466,三峽區,1071.0,1059.0
唐香蘭涼麵｜真果粉圓｜蔬食手捲,4.8,58,冰品飲料店,新北市三峽區大同路56號,24.9286129,121.376951,3,44,0,69,8,0,0,0,0,2,三峽區,介壽里,新北市,板橋區,介壽里,880.0,646016.0,734.0,460.0,222.0,989.0,814.97,111.01,三峽區,2038.200813195466,三峽區,1071.0,1059.0
唐香蘭涼麵｜真果粉圓｜蔬食手捲,4.8,58,冰品飲料店,新北市三峽區大同路56號,24.9286129,121.376951,3,44,0,69,8,0,0,0,0,2,三峽區,介壽里,新北市,三峽區,介壽里,1717.0,866095.0,504.0,361.0,188.0,633.0,741.9,147.08,三峽區,2038.200813195466,三峽區,1071.0,1059.0
茗食茶,4.4,23,冰品飲料店,新北市三峽區大觀路313號,24.9475348,121.3730902,4,24,0,51,8,0,2,0,0,0,三峽區,龍學里,新北市,三峽區,龍學里,5241.0,5693877.0,1086.0,711.0,302.0,1440.0,1297.72,119.45,三峽區,2038.200813195466,三峽區,1071.0,1059.0
伊希詩ISIS冷飲,4.4,13,冰品飲料店,新北市三峽區大學路109-1號,24.9420845,121.3756495,5,50,0,84,9,0,3,0,0,0,三峽區,龍學里,新北市,三峽區,龍學里,5241.0,5693877.0,1086.0,711.0,302.0,1440.0,1297.72,119.45,三峽區,2038.200813195466,三峽區,1071.0,1059.0
古道阿彬杏仁茶,3.5,113,飲料,新北市三峽區民權街40號,24.9336735,121.369658,7,61,0,96,12,0,4,0,0,2,三峽區,三峽里,新北市,三峽區,三峽里,70.0,41129.0,588.0,426.0,273.0,759.0,558.71,95.09,三峽區,2038.200813195466,三峽區,1071.0,1059.0
魔法香腸 Magic Sausage,5.0,916,冰品飲料店,新北市三峽區民權街97號,24.9326914,121.3692766,7,59,0,98,12,0,4,0,0,2,三峽區,三峽里,新北市,三峽區,三峽里,70.0,41129.0,588.0,426.0,273.0,759.0,558.71,95.09,三峽區,2038.200813195466,三峽區,1071.0,1059.0
金聯春老房子,4.0,1,冰品飲料店,新北市三峽區民權街5 3號,24.9334179,121.369771,7,61,0,95,12,0,4,0,0,2,三峽區,三峽里,新北市,三峽區,三峽里,70.0,41129.0,588.0,426.0,273.0,759.0,558.71,95.09,三峽區,2038.200813195466,三峽區,1071.0,1059.0
YCHY拾味(三峽義大利麵、三峽咖啡廳、三峽午餐、三峽晚餐、三峽下午茶、三峽人氣餐廳、三峽平價美食）,4.5,736,冰品飲料店,新北市三峽區國際一街27-1號1樓,24.9424002,121.3737362,6,54,0,77,9,0,5,0,0,0,三峽區,龍恩里,新北市,三峽區,龍恩里,2339.0,2473636.0,1058.0,635.0,267.0,1351.0,1325.52,125.34,三峽區,2038.200813195466,三峽區,1071.0,1059.0
禾乃川國產豆製所,4.4,1,冰品飲料店,新北市民權街84巷12-1號*最後點餐時間17:30,24.9337739,121.3689688,6,61,0,90,12,0,4,0,0,2,三峽區,三峽里,新北市,三峽區,三峽里,70.0,41129.0,588.0,426.0,273.0,759.0,558.71,95.09,三峽區,2038.200813195466,三峽區,1071.0,1059.0
啡茶小棧,0.0,0,冰品飲料店,新北市三峽區白雞路153-1號白雞商圈,24.9049821,121.4008095,0,2,0,8,0,0,0,0,0,0,三峽區,嘉添里,新北市,三峽區,嘉添里,524.0,304771.0,582.0,336.0,178.0,665.0,984.23,169.22,三峽區,2038.200813195466,三峽區,1071.0,1059.0
蟾蜍山谷冷飲店,5.0,52,冰品飲料店,新北市三峽區,24.8564912,121.4357632,1,2,0,16,0,0,0,0,0,0,三峽區,有木里,新北市,三峽區,有木里,87.0,54117.0,622.0,407.0,171.0,722.0,789.65,126.95,三峽區,2038.200813195466,三峽區,1071.0,1059.0
嚐冰閣,0.0,0,冰品飲料店,新北市三峽區介壽路三段146號,24.9432035,121.4012029,0,1,0,24,3,0,0,0,0,0,三峽區,溪北里,新北市,板橋區,溪北里,1058.0,681915.0,645.0,422.0,222.0,793.0,745.46,115.66,三峽區,2038.200813195466,三峽區,1071.0,1059.0
嚐冰閣,0.0,0,冰品飲料店,新北市三峽區介壽路三段146號,24.9432035,121.4012029,0,1,0,24,3,0,0,0,0,0,三峽區,溪北里,新北市,三峽區,溪北里,541.0,286616.0,530.0,348.0,190.0,633.0,628.0,118.54,三峽區,2038.200813195466,三峽區,1071.0,1059.0
我家苦茶 草本養生茶舖,4.9,17,冰品飲料店,新北市三峽區白雞路1號153 之 號,24.9048573,121.4005201,0,2,0,9,0,0,0,0,0,0,三峽區,嘉添里,新北市,三峽區,嘉添里,524.0,304771.0,582.0,336.0,178.0,665.0,984.23,169.22,三峽區,2038.200813195466,三峽區,1071.0,1059.0
穩贏生技股份有限公司(北區營業處),0.0,0,飲品分銷商,新北市三峽區添福路151之7號,24.8989055,121.3753074,0,1,0,19,0,0,0,0,0,0,三峽區,添福里,新北市,三峽區,添福里,261.0,172106.0,659.0,408.0,200.0,683.0,965.16,146.37,三峽區,2038.200813195466,三峽區,1071.0,1059.0
隱茶於市,4.5,19,冰品飲料店,新北市鶯歌區國中街120號,24.9401638,121.3395606,3,6,0,24,5,0,1,0,0,0,鶯歌區,二橋里,新北市,鶯歌區,二橋里,2383.0,1348612.0,566.0,399.0,202.0,718.0,637.68,112.68,鶯歌區,1210.4688571620409,鶯歌區,832.0,822.0
三峽冰鎮-北大店,4.0,264,冰品飲料店,新北市三峽區大德路485號,24.947807,121.37419,5,25,0,51,8,0,2,0,0,0,三峽區,龍學里,新北市,三峽區,龍學里,5241.0,5693877.0,1086.0,711.0,302.0,1440.0,1297.72,119.45,三峽區,2038.200813195466,三峽區,1071.0,1059.0
CoCo都可 三峽大雅店,4.3,219,冰品飲料店,新北市樹林區大雅路280號,24.9472177,121.3798771,5,25,0,63,6,0,0,0,0,0,樹林區,南園里,新北市,樹林區,南園里,5079.0,5674644.0,1117.0,696.0,297.0,1419.0,1426.2,127.65,樹林區,4972.842329654701,樹林區,1190.0,1190.0
Tea's 原味（鶯歌南雅店）,3.2,56,冰品飲料店,新北市鶯歌區南雅路35號,24.954198,121.3490025,3,42,1,75,9,1,3,0,0,0,鶯歌區,南鶯里,新北市,鶯歌區,南鶯里,1630.0,1114030.0,683.0,428.0,214.0,798.0,1119.66,163.82,鶯歌區,1210.4688571620409,鶯歌區,832.0,822.0
易家紅茶冰,3.6,8,冰品飲料店,新北市三峽區中園街26號,24.9268903,121.3681208,4,38,0,69,10,0,1,0,0,0,三峽區,八張里,新北市,三峽區,八張里,1081.0,635259.0,588.0,394.0,198.0,742.0,746.94,127.11,三峽區,2038.200813195466,三峽區,1071.0,1059.0
火金姑茶,4.4,43,茶葉店,新北市三峽區安坑里11鄰 51-6號,24.9315231,121.463942,0,1,0,10,0,0,0,0,0,0,三峽區,安坑里,新北市,三峽區,安坑里,274.0,136507.0,498.0,346.0,188.0,627.0,476.47,95.64,三峽區,2038.200813195466,三峽區,1071.0,1059.0
涎露茗茶,0.0,0,茶葉店,新北市三峽區,24.9177366,121.4628214,0,1,0,2,0,0,0,0,0,0,三峽區,安坑里,新北市,三峽區,安坑里,274.0,136507.0,498.0,346.0,188.0,627.0,476.47,95.64,三峽區,2038.200813195466,三峽區,1071.0,1059.0
甘霖冰室,0.0,0,冰品飲料店,新北市三峽區成福路261號,24.9235991,121.427911,0,7,0,26,1,0,0,0,0,0,三峽區,成福里,台北市,南港區,成福里,2458.0,2278200.0,927.0,523.0,247.0,1121.0,1777.93,191.82,三峽區,2038.200813195466,三峽區,1071.0,1059.0
甘霖冰室,0.0,0,冰品飲料店,新北市三峽區成福路261號,24.9235991,121.427911,0,7,0,26,1,0,0,0,0,0,三峽區,成福里,新北市,三峽區,成福里,223.0,104744.0,470.0,312.0,172.0,583.0,618.28,131.63,三峽區,2038.200813195466,三峽區,1071.0,1059.0
三峽日盛製茶 七代傳承,4.5,39,茶葉店,新北市三峽區成福路308-1號,24.9234616,121.4289819,0,7,0,27,1,0,0,0,0,0,三峽區,成福里,台北市,南港區,成福里,2458.0,2278200.0,927.0,523.0,247.0,1121.0,1777.93,191.82,三峽區,2038.200813195466,三峽區,1071.0,1059.0
三峽日盛製茶 七代傳承,4.5,39,茶葉店,新北市三峽區成福路308-1號,24.9234616,121.4289819,0,7,0,27,1,0,0,0,0,0,三峽區,成福里,新北市,三峽區,成福里,223.0,104744.0,470.0,312.0,172.0,583.0,618.28,131.63,三峽區,2038.200813195466,三峽區,1071.0,1059.0
老家Black Tea (Old Place),4.7,46,無酒精飲料店,新北市三峽區中山路37號,24.9344206,121.3682438,6,56,0,88,11,0,4,0,0,1,三峽區,永舘里,新北市,三峽區,永舘里,2113.0,1383722.0,655.0,432.0,206.0,812.0,864.02,131.94,三峽區,2038.200813195466,三峽區,1071.0,1059.0
好了啦-三峽祖師廟店,3.0,4,果汁,新北市三峽區長福街2號正對面,24.933576,121.370231,7,62,0,98,13,0,4,0,0,2,三峽區,秀川里,新北市,三峽區,秀川里,160.0,101248.0,633.0,408.0,202.0,821.0,722.66,114.2,三峽區,2038.200813195466,三峽區,1071.0,1059.0
雲萃茶作,3.9,30,茶葉店,新北市三峽區民權街69號,24.9329941,121.369691,7,60,0,98,13,0,4,0,0,2,三峽區,三峽里,新北市,三峽區,三峽里,70.0,41129.0,588.0,426.0,273.0,759.0,558.71,95.09,三峽區,2038.200813195466,三峽區,1071.0,1059.0
有福製茶廠/新北製茶廠/新北茶葉/新北茶葉批發/新北茶農,4.6,43,茶葉店,新北市三峽區竹崙路87-1號,24.9188232,121.4324518,0,7,0,25,1,0,0,0,0,0,三峽區,竹崙里,新北市,三峽區,竹崙里,405.0,220888.0,545.0,343.0,163.0,563.0,897.43,164.54,三峽區,2038.200813195466,三峽區,1071.0,1059.0
山泉水 清茶館,3.0,1,無酒精飲料店,新北市三峽區清水街334號,24.9338546,121.3712325,7,65,0,98,13,0,4,0,0,2,三峽區,秀川里,新北市,三峽區,秀川里,160.0,101248.0,633.0,408.0,202.0,821.0,722.66,114.2,三峽區,2038.200813195466,三峽區,1071.0,1059.0
幸福搖搖-西門1號店,4.4,323,冰品飲料店,台北市萬華區成都路54號1樓,25.042642,121.5060244,8,143,0,75,15,1,4,3,6,1,萬華區,西門里,台北市,萬華區,西門里,1165.0,1029172.0,883.0,522.0,236.0,1108.0,1322.87,149.75,萬華區,4589.894304579775,萬華區,12582.0,12843.0
蟾蜍山谷烤肉區,4.0,561,冰品飲料店,新北市三峽區130之1號,24.8566359,121.4355647,1,2,0,16,0,0,0,0,0,0,三峽區,有木里,新北市,三峽區,有木里,87.0,54117.0,622.0,407.0,171.0,722.0,789.65,126.95,三峽區,2038.200813195466,三峽區,1071.0,1059.0
愛沐芋芋頭芋圓仙草凍專賣店-三峽特色冰店|必吃芋圓|人氣飲料|熱門飲料|推薦手搖|仙草凍推薦,3.9,29,無酒精飲料店,新北市三峽區和平街103號,24.938113,121.370173,6,68,0,84,11,0,6,0,0,1,三峽區,永舘里,新北市,三峽區,永舘里,2113.0,1383722.0,655.0,432.0,206.0,812.0,864.02,131.94,三峽區,2038.200813195466,三峽區,1071.0,1059.0
茶裡不然-大坪林店,4.6,64,冰品飲料店,新北市新店區北新路三段159號,24.9837749,121.5410231,6,74,0,69,11,1,7,2,2,2,新店區,復興里,新北市,蘆洲區,復興里,967.0,524341.0,542.0,377.0,199.0,687.0,599.58,110.58,新店區,14205.962126516062,新店區,1896.0,1898.0
茶裡不然-大坪林店,4.6,64,冰品飲料店,新北市新店區北新路三段159號,24.9837749,121.5410231,6,74,0,69,11,1,7,2,2,2,新店區,復興里,新北市,新店區,復興里,1063.0,805319.0,758.0,424.0,221.0,894.0,1841.61,243.09,新店區,14205.962126516062,新店區,1896.0,1898.0
茶裡不然-大坪林店,4.6,64,冰品飲料店,新北市新店區北新路三段159號,24.9837749,121.5410231,6,74,0,69,11,1,7,2,2,2,新店區,復興里,新北市,板橋區,復興里,188.0,93496.0,497.0,360.0,185.0,619.0,476.75,95.86,新店區,14205.962126516062,新店區,1896.0,1898.0
茶裡不然-大坪林店,4.6,64,冰品飲料店,新北市新店區北新路三段159號,24.9837749,121.5410231,6,74,0,69,11,1,7,2,2,2,新店區,復興里,新北市,中和區,復興里,1469.0,1024303.0,697.0,408.0,197.0,840.0,1255.2,180.01,新店區,14205.962126516062,新店區,1896.0,1898.0
茶裡不然-大坪林店,4.6,64,冰品飲料店,新北市新店區北新路三段159號,24.9837749,121.5410231,6,74,0,69,11,1,7,2,2,2,新店區,復興里,新北市,土城區,復興里,1387.0,903742.0,652.0,413.0,213.0,849.0,725.71,111.38,新店區,14205.962126516062,新店區,1896.0,1898.0
茶裡不然-大坪林店,4.6,64,冰品飲料店,新北市新店區北新路三段159號,24.9837749,121.5410231,6,74,0,69,11,1,7,2,2,2,新店區,復興里,新北市,汐止區,復興里,2694.0,2868535.0,1065.0,621.0,261.0,1333.0,1615.47,151.72,新店區,14205.962126516062,新店區,1896.0,1898.0
茶裡不然-大坪林店,4.6,64,冰品飲料店,新北市新店區北新路三段159號,24.9837749,121.5410231,6,74,0,69,11,1,7,2,2,2,新店區,復興里,新北市,永和區,復興里,811.0,690550.0,851.0,537.0,252.0,1025.0,1122.14,131.79,新店區,14205.962126516062,新店區,1896.0,1898.0
日日杯茶飲,4.9,168,冰品飲料店,新北市中和區景平路574號,24.9955362,121.5016896,3,83,0,101,11,0,5,2,0,3,中和區,新南里,新北市,中和區,新南里,2824.0,2668763.0,945.0,586.0,268.0,1207.0,1137.41,120.36,中和區,25298.72528078057,中和區,1425.0,1416.0
李記紅茶冰 文山木新店,4.2,30,冰品飲料店,台北市文山區木新路三段181號,24.981511,121.5603632,12,28,0,57,16,0,2,0,0,0,文山區,樟腳里,台北市,文山區,樟腳里,1812.0,2135744.0,1179.0,610.0,274.0,1294.0,1886.12,160.02,文山區,10339.294142673152,文山區,1695.0,1695.0
兔子茶飲,4.3,13,冰品飲料店,新北市中和區景平路73號,24.9916396,121.5182343,4,94,0,84,14,1,3,3,0,0,中和區,秀峰里,新北市,中和區,秀峰里,1680.0,1155680.0,688.0,425.0,205.0,871.0,1058.82,153.92,中和區,25298.72528078057,中和區,1425.0,1416.0
兔子茶飲,4.3,13,冰品飲料店,新北市中和區景平路73號,24.9916396,121.5182343,4,94,0,84,14,1,3,3,0,0,中和區,秀峰里,新北市,汐止區,秀峰里,1395.0,993735.0,712.0,422.0,208.0,872.0,962.83,135.16,中和區,25298.72528078057,中和區,1425.0,1416.0
蒔三SHI SAN TEA - 新北中和店,4.7,45,冰品飲料店,新北市中和區圓通路162之5號,24.9951589,121.4974281,3,77,0,100,12,0,11,2,0,2,中和區,力行里,台北市,中山區,力行里,2413.0,3757929.0,1557.0,651.0,280.0,1473.0,5432.08,348.8,中和區,25298.72528078057,中和區,1425.0,1416.0
蒔三SHI SAN TEA - 新北中和店,4.7,45,冰品飲料店,新北市中和區圓通路162之5號,24.9951589,121.4974281,3,77,0,100,12,0,11,2,0,2,中和區,力行里,新北市,中和區,力行里,2022.0,1711343.0,846.0,542.0,244.0,1107.0,995.11,117.57,中和區,25298.72528078057,中和區,1425.0,1416.0
吳家紅茶冰台北木新店,4.3,48,冰品飲料店,台北市文山區木新路三段306號,24.9809322,121.5573103,8,25,0,55,12,0,2,0,0,0,文山區,樟腳里,台北市,文山區,樟腳里,1812.0,2135744.0,1179.0,610.0,274.0,1294.0,1886.12,160.02,文山區,10339.294142673152,文山區,1695.0,1695.0
谷雨茶水舖,4.8,86,冰品飲料店,新北市中和區建一路103號,25.0015424,121.488223,2,78,0,89,11,0,13,2,0,1,中和區,碧河里,新北市,中和區,碧河里,1743.0,1705393.0,978.0,570.0,260.0,1205.0,1263.5,129.14,中和區,25298.72528078057,中和區,1425.0,1416.0
馬祖奶茶（文山木新店）,4.5,48,冰品飲料店,台北市文山區木新路三段33號,24.9824552,121.5645275,7,30,0,48,16,0,6,0,0,0,文山區,樟腳里,台北市,文山區,樟腳里,1812.0,2135744.0,1179.0,610.0,274.0,1294.0,1886.12,160.02,文山區,10339.294142673152,文山區,1695.0,1695.0
茶聚CHAGE文山木新店,4.3,58,冰品飲料店,台北市文山區木新路二段262號,24.9831829,121.5660561,5,33,0,50,14,0,5,0,0,0,文山區,順興里,台北市,文山區,順興里,2304.0,2061124.0,895.0,523.0,242.0,1105.0,1233.89,137.93,文山區,10339.294142673152,文山區,1695.0,1695.0
五桐號WooTea 新北南勢角店,4.0,319,冰品飲料店,新北市中和區興南路一段94號,24.9891449,121.509785,7,110,0,91,12,1,0,3,0,0,中和區,景福里,新北市,中和區,景福里,1923.0,1695495.0,882.0,537.0,243.0,1054.0,1211.34,137.39,中和區,25298.72528078057,中和區,1425.0,1416.0
COMEBUY_中和大勇店,3.6,184,冰品飲料店,新北市中和區大勇街27巷2號,24.9936789,121.5172163,4,111,0,92,18,1,4,3,0,0,中和區,秀明里,新北市,中和區,秀明里,1669.0,1302145.0,780.0,488.0,212.0,980.0,991.58,127.09,中和區,25298.72528078057,中和區,1425.0,1416.0
大苑子台北木新店,4.1,248,冰品飲料店,台北市文山區木新路三段141號,24.9817883,121.5616159,12,29,0,58,17,0,3,0,0,0,文山區,樟腳里,台北市,文山區,樟腳里,1812.0,2135744.0,1179.0,610.0,274.0,1294.0,1886.12,160.02,文山區,10339.294142673152,文山區,1695.0,1695.0
木昂手作-樹林鎮前店,4.9,37,冰品飲料店,新北市樹林區鎮前街146號,24.9903955,121.4245155,5,87,1,103,17,1,3,0,1,0,樹林區,樹北里,新北市,樹林區,樹北里,291.0,209574.0,720.0,466.0,228.0,878.0,906.58,125.88,樹林區,4972.842329654701,樹林區,1190.0,1190.0
予無憂飲品工作室 中和立人店,4.7,118,冰品飲料店,新北市中和區立人街21號,24.993971,121.521274,4,58,0,79,18,0,7,2,0,0,中和區,秀山里,台北市,北投區,秀山里,933.0,629482.0,675.0,442.0,202.0,827.0,806.81,119.58,中和區,25298.72528078057,中和區,1425.0,1416.0
予無憂飲品工作室 中和立人店,4.7,118,冰品飲料店,新北市中和區立人街21號,24.993971,121.521274,4,58,0,79,18,0,7,2,0,0,中和區,秀山里,新北市,中和區,秀山里,1373.0,996169.0,726.0,475.0,231.0,898.0,1004.26,138.42,中和區,25298.72528078057,中和區,1425.0,1416.0
予無憂飲品工作室 中和立人店,4.7,118,冰品飲料店,新北市中和區立人街21號,24.993971,121.521274,4,58,0,79,18,0,7,2,0,0,中和區,秀山里,新北市,汐止區,秀山里,1606.0,1423978.0,887.0,488.0,220.0,1032.0,1441.04,162.52,中和區,25298.72528078057,中和區,1425.0,1416.0
清心福全三峽中華店-珍珠奶茶手搖飲料專賣店,3.7,73,珍珠奶茶,新北市三峽區中華路21號1樓,24.9317207,121.3733697,7,59,0,97,13,0,2,0,0,2,三峽區,安溪里,新北市,三峽區,安溪里,2096.0,1219994.0,582.0,403.0,200.0,728.0,979.69,168.31,三峽區,2038.200813195466,三峽區,1071.0,1059.0
正統茗茶製茶廠,4.7,12,茶葉店,新北市三峽區竹崙路97號,24.916712,121.433076,0,6,0,21,1,0,0,0,0,0,三峽區,竹崙里,新北市,三峽區,竹崙里,405.0,220888.0,545.0,343.0,163.0,563.0,897.43,164.54,三峽區,2038.200813195466,三峽區,1071.0,1059.0
昱德茗茶,0.0,0,茶葉店,新北市三峽區竹崙路66號,24.9192167,121.4320743,0,7,0,25,1,0,0,0,0,0,三峽區,竹崙里,新北市,三峽區,竹崙里,405.0,220888.0,545.0,343.0,163.0,563.0,897.43,164.54,三峽區,2038.200813195466,三峽區,1071.0,1059.0
海山綠葉茶園,0.0,0,茶葉店,新北市三峽區,24.9256438,121.4267134,0,6,0,28,1,0,0,0,0,0,三峽區,成福里,台北市,南港區,成福里,2458.0,2278200.0,927.0,523.0,247.0,1121.0,1777.93,191.82,三峽區,2038.200813195466,三峽區,1071.0,1059.0
海山綠葉茶園,0.0,0,茶葉店,新北市三峽區,24.9256438,121.4267134,0,6,0,28,1,0,0,0,0,0,三峽區,成福里,新北市,三峽區,成福里,223.0,104744.0,470.0,312.0,172.0,583.0,618.28,131.63,三峽區,2038.200813195466,三峽區,1071.0,1059.0
金門仔飲料專賣店,4.4,118,冰品飲料店,新北市三重區大智街236號,25.0725835,121.4895396,6,76,0,91,21,0,2,2,0,0,三重區,培德里,新北市,三重區,培德里,1108.0,761654.0,687.0,438.0,211.0,807.0,991.33,144.21,三重區,22379.441956094463,三重區,1792.0,1792.0
雲森茶業,0.0,0,茶葉店,新北市三峽區文化路234號,23.4857501,120.0843006,0,5,0,0,0,0,0,0,0,0,三峽區,鳶山里,新北市,三峽區,鳶山里,2896.0,1892242.0,653.0,415.0,202.0,804.0,816.73,125.0,三峽區,2038.200813195466,三峽區,1071.0,1059.0
李記紅茶冰-北大龍瑩店,5.0,7,冰品飲料店,新北市樹林區佳園路三段132-1號,24.9499518,121.3857262,3,10,0,46,4,0,0,0,0,0,樹林區,南園里,新北市,樹林區,南園里,5079.0,5674644.0,1117.0,696.0,297.0,1419.0,1426.2,127.65,樹林區,4972.842329654701,樹林區,1190.0,1190.0
麻古茶坊三峽北大店,3.5,172,珍珠奶茶,新北市三峽區國際一街30號,24.9427912,121.3736611,6,50,0,79,9,0,5,0,0,0,三峽區,龍恩里,新北市,三峽區,龍恩里,2339.0,2473636.0,1058.0,635.0,267.0,1351.0,1325.52,125.34,三峽區,2038.200813195466,三峽區,1071.0,1059.0
茶米屋86,5.0,5,冰品飲料店,新北市三芝區長勤街86號,25.2550708,121.5001433,3,11,0,31,5,1,0,0,0,0,三芝區,乾華里,新北市,石門區,乾華里,73.0,33495.0,459.0,361.0,173.0,641.0,434.4,94.68,三芝區,74.61816421390597,三芝區,563.0,561.0
三芝農夫市集 璽揚揚手做吐司、蛋黃酥、香草茶,5.0,66,冰品飲料店,新北市三芝區,25.2464414,121.5080817,0,2,0,20,2,0,0,0,0,0,三芝區,八賢里,新北市,三芝區,八賢里,69.0,28098.0,407.0,248.0,132.0,511.0,617.15,151.55,三芝區,74.61816421390597,三芝區,563.0,561.0
CoCo都可 三芝店,4.4,464,冰品飲料店,新北市三芝區中正路一段53號,25.2580262,121.5033625,2,11,0,32,5,1,0,0,0,0,三芝區,乾華里,新北市,石門區,乾華里,73.0,33495.0,459.0,361.0,173.0,641.0,434.4,94.68,三芝區,74.61816421390597,三芝區,563.0,561.0
葵可麗,5.0,4,冰品飲料店,新北市三芝區中正路一段73號,25.2570618,121.5040849,2,11,0,34,5,1,0,0,0,0,三芝區,埔坪里,新北市,三芝區,埔坪里,1717.0,761612.0,444.0,316.0,161.0,545.0,462.54,104.28,三芝區,74.61816421390597,三芝區,563.0,561.0
清心福全三芝店-珍珠奶茶手搖飲料專賣店,3.7,101,冰品飲料店,新北市三芝區淡金路二段14號,25.2595481,121.5024722,2,11,0,29,5,1,0,0,0,0,三芝區,乾華里,新北市,石門區,乾華里,73.0,33495.0,459.0,361.0,173.0,641.0,434.4,94.68,三芝區,74.61816421390597,三芝區,563.0,561.0
三芝快可立,4.4,24,珍珠奶茶,新北市三芝區淡金路二段2號,25.2592512,121.5022722,2,11,0,31,5,1,0,0,0,0,三芝區,乾華里,新北市,石門區,乾華里,73.0,33495.0,459.0,361.0,173.0,641.0,434.4,94.68,三芝區,74.61816421390597,三芝區,563.0,561.0
休閒小站新鮮茶飲專賣,4.6,43,飲料,新北市三芝區中正路一段16號,25.2589791,121.5029035,2,11,0,32,5,1,0,0,0,0,三芝區,乾華里,新北市,石門區,乾華里,73.0,33495.0,459.0,361.0,173.0,641.0,434.4,94.68,三芝區,74.61816421390597,三芝區,563.0,561.0
茗恩茶莊,4.5,15,茶葉店,新北市三芝區公正街三段4號,25.2568123,121.4989681,3,11,0,30,5,1,0,0,0,0,三芝區,乾華里,新北市,石門區,乾華里,73.0,33495.0,459.0,361.0,173.0,641.0,434.4,94.68,三芝區,74.61816421390597,三芝區,563.0,561.0
御品香茗茶,0.0,0,茶葉店,新北市三芝區中山路一段110號,25.2562489,121.5024908,3,11,0,34,5,1,0,0,0,0,三芝區,乾華里,新北市,石門區,乾華里,73.0,33495.0,459.0,361.0,173.0,641.0,434.4,94.68,三芝區,74.61816421390597,三芝區,563.0,561.0
珞樂樂,4.8,49,冰品飲料店,新北市三芝區埔坪里埔頭坑88之7號,25.2547291,121.5068226,2,12,0,37,6,1,0,0,0,0,三芝區,埔坪里,新北市,三芝區,埔坪里,1717.0,761612.0,444.0,316.0,161.0,545.0,462.54,104.28,三芝區,74.61816421390597,三芝區,563.0,561.0
好了啦紅茶冰-三芝智成店,4.5,6,冰品飲料店,新北市三芝區智成街26號,25.2566695,121.5038944,3,11,0,34,5,1,0,0,0,0,三芝區,埔坪里,新北市,三芝區,埔坪里,1717.0,761612.0,444.0,316.0,161.0,545.0,462.54,104.28,三芝區,74.61816421390597,三芝區,563.0,561.0
三芝製茶所-小粟手作,4.4,27,茶葉店,新北市三芝區105號~1 店面在淡金路2段19巷1號,25.2613699,121.4791021,0,1,0,17,4,0,0,0,0,0,三芝區,錫板里,新北市,三芝區,錫板里,173.0,86817.0,502.0,323.0,142.0,576.0,587.84,117.14,三芝區,74.61816421390597,三芝區,563.0,561.0
三分春色 台北小巨蛋店,4.9,335,冰品飲料店,台北市松山區南京東路四段2號1樓,25.0509865,121.5503562,6,136,0,19,22,1,25,2,2,5,松山區,美仁里,台北市,松山區,美仁里,1221.0,1618191.0,1325.0,690.0,293.0,1570.0,1894.29,142.93,松山區,5710.842282044083,松山區,2797.0,2799.0
奶茶站飲料坊,4.5,159,冰品飲料店,台北市大同區重慶北路三段335巷42號,25.074464,121.515217,6,31,0,39,19,1,9,1,0,0,大同區,保安里,台北市,大同區,保安里,1472.0,1224726.0,832.0,483.0,227.0,1009.0,1204.74,144.8,大同區,2195.8386257927473,大同區,2546.0,2551.0
奶茶站飲料坊,4.5,159,冰品飲料店,台北市大同區重慶北路三段335巷42號,25.074464,121.515217,6,31,0,39,19,1,9,1,0,0,大同區,保安里,新北市,樹林區,保安里,1830.0,1163173.0,636.0,419.0,211.0,792.0,735.22,115.67,大同區,2195.8386257927473,大同區,2546.0,2551.0
奶茶站飲料坊,4.5,159,冰品飲料店,台北市大同區重慶北路三段335巷42號,25.074464,121.515217,6,31,0,39,19,1,9,1,0,0,大同區,保安里,新北市,汐止區,保安里,526.0,264586.0,503.0,351.0,178.0,611.0,549.99,109.34,大同區,2195.8386257927473,大同區,2546.0,2551.0
奶茶站飲料坊,4.5,159,冰品飲料店,台北市大同區重慶北路三段335巷42號,25.074464,121.515217,6,31,0,39,19,1,9,1,0,0,大同區,保安里,新北市,永和區,保安里,2457.0,2525422.0,1028.0,593.0,256.0,1282.0,1657.13,161.22,大同區,2195.8386257927473,大同區,2546.0,2551.0
思相枝傳統豆花,3.7,82,冰品飲料店,新北市三芝區中正路一段101號,25.2560096,121.5047828,2,11,0,35,5,1,0,0,0,0,三芝區,埔坪里,新北市,三芝區,埔坪里,1717.0,761612.0,444.0,316.0,161.0,545.0,462.54,104.28,三芝區,74.61816421390597,三芝區,563.0,561.0
小粟茶室,0.0,0,茶葉店,新北市三芝區北勢子20號,25.2534722,121.4727693,0,1,0,21,4,0,0,0,0,0,三芝區,後厝里,新北市,三芝區,後厝里,623.0,408288.0,655.0,358.0,163.0,713.0,1141.44,174.17,三芝區,74.61816421390597,三芝區,563.0,561.0
福德茶坊,4.7,21,冰品飲料店,新北市淡水區中正路61號,25.1694876,121.4415834,5,94,0,58,14,2,1,1,0,0,淡水區,草東里,新北市,淡水區,草東里,246.0,167207.0,680.0,403.0,168.0,927.0,778.19,114.49,淡水區,5801.71096020851,淡水區,2219.0,2249.0
Milu義調柴飲品店/早午餐,4.7,41,冰品飲料店,新北市泰山區楓江路40-2號,25.0623809,121.434859,3,24,0,52,15,0,7,0,0,0,泰山區,楓樹里,新北市,泰山區,楓樹里,1305.0,922870.0,707.0,442.0,207.0,901.0,829.05,117.23,泰山區,917.654568025197,泰山區,1101.0,1100.0
原品手作飲料舖,1.6,10,冰品飲料店,新北市三重區龍濱路20巷6號,25.0676487,121.5027276,4,97,0,56,13,2,9,2,1,0,三重區,長江里,新北市,三重區,長江里,605.0,432168.0,714.0,430.0,222.0,889.0,912.65,127.76,三重區,22379.441956094463,三重區,1792.0,1792.0
淡水舊鎮50年代枝仔冰,4.2,403,冰品飲料店,新北市淡水區淡金路二段270-1號,25.1885242,121.4471664,2,7,0,69,6,0,1,0,0,0,淡水區,埤島里,新北市,淡水區,埤島里,568.0,417894.0,736.0,476.0,235.0,943.0,885.58,120.37,淡水區,5801.71096020851,淡水區,2219.0,2249.0
料杯杯BOBOLIAO微風北車店,4.1,262,冰品飲料店,台北市中正區北平西路3號2樓,25.0473866,121.5167338,8,176,1,56,16,0,12,5,2,2,中正區,黎明里,台北市,中正區,黎明里,1146.0,1327796.0,1159.0,650.0,274.0,1341.0,1829.16,157.87,中正區,3440.5117097705534,中正區,3773.0,3775.0
料杯杯BOBOLIAO微風北車店,4.1,262,冰品飲料店,台北市中正區北平西路3號2樓,25.0473866,121.5167338,8,176,1,56,16,0,12,5,2,2,中正區,黎明里,新北市,泰山區,黎明里,1021.0,623640.0,611.0,424.0,200.0,760.0,702.36,114.99,中正區,3440.5117097705534,中正區,3773.0,3775.0
芋見幸福大甲芋頭牛奶(三重福德店),4.9,26,冰品飲料店,新北市三重區信義街82號,25.0653305,121.5017357,4,105,0,54,13,2,9,2,1,0,三重區,光華里,新北市,新莊區,光華里,2095.0,1258512.0,601.0,405.0,208.0,757.0,707.49,117.77,三重區,22379.441956094463,三重區,1792.0,1792.0
芋見幸福大甲芋頭牛奶(三重福德店),4.9,26,冰品飲料店,新北市三重區信義街82號,25.0653305,121.5017357,4,105,0,54,13,2,9,2,1,0,三重區,光華里,新北市,蘆洲區,光華里,1547.0,1046073.0,676.0,428.0,207.0,833.0,829.52,122.68,三重區,22379.441956094463,三重區,1792.0,1792.0
芋見幸福大甲芋頭牛奶(三重福德店),4.9,26,冰品飲料店,新北市三重區信義街82號,25.0653305,121.5017357,4,105,0,54,13,2,9,2,1,0,三重區,光華里,新北市,三重區,光華里,774.0,579252.0,748.0,478.0,222.0,908.0,1061.51,141.84,三重區,22379.441956094463,三重區,1792.0,1792.0
芋見幸福大甲芋頭牛奶(三重福德店),4.9,26,冰品飲料店,新北市三重區信義街82號,25.0653305,121.5017357,4,105,0,54,13,2,9,2,1,0,三重區,光華里,新北市,板橋區,光華里,887.0,683510.0,771.0,480.0,208.0,959.0,961.78,124.81,三重區,22379.441956094463,三重區,1792.0,1792.0
蓋斯茶中和永安站,5.0,175,冰品飲料店,新北市中和區中安街18號,25.0031781,121.5133512,10,164,0,114,34,1,21,1,1,1,中和區,中安里,新北市,中和區,中安里,1599.0,1512393.0,946.0,551.0,256.0,1165.0,1239.74,131.07,中和區,25298.72528078057,中和區,1425.0,1416.0
DrinkStore水雲朵台北復興店,4.7,163,冰品飲料店,台北市中山區復興北路154-1號,25.0530117,121.5437952,8,124,0,23,24,1,23,3,3,3,中山區,復華里,台北市,中山區,復華里,1784.0,2454073.0,1376.0,669.0,264.0,1528.0,2227.49,161.93,中山區,7143.304433433641,中山區,2613.0,2612.0
泰桑哩SonnyChaThai樂華店（每週二公休）,4.2,241,冰品飲料店,新北市永和區永平路181號,25.0092694,121.5101503,7,146,0,107,41,1,17,2,1,2,永和區,協和里,新北市,永和區,協和里,883.0,644255.0,730.0,463.0,208.0,938.0,909.45,124.65,永和區,7036.536525279407,永和區,14034.0,14141.0
七盞茶 三重三民店,4.8,79,冰品飲料店,新北市三重區三民街110號1號,25.0633568,121.4850948,8,57,0,62,23,0,7,2,0,0,三重區,田安里,新北市,三重區,田安里,1877.0,1248095.0,665.0,425.0,199.0,806.0,822.42,123.68,三重區,22379.441956094463,三重區,1792.0,1792.0
CoCo都可 三民店,4.2,148,冰品飲料店,新北市三重區三民街89號,25.063173,121.4855933,8,62,0,66,21,0,11,2,0,0,三重區,三民里,台北市,松山區,三民里,2388.0,2799538.0,1172.0,629.0,253.0,1360.0,1865.07,159.09,三重區,22379.441956094463,三重區,1792.0,1792.0
CoCo都可 三民店,4.2,148,冰品飲料店,新北市三重區三民街89號,25.063173,121.4855933,8,62,0,66,21,0,11,2,0,0,三重區,三民里,新北市,三重區,三民里,979.0,700529.0,716.0,452.0,221.0,905.0,861.95,120.46,三重區,22379.441956094463,三重區,1792.0,1792.0
黑波堂 三重中華店,4.6,51,冰品飲料店,新北市三重區中華路117號,25.0635935,121.4836767,8,52,0,66,22,0,8,2,0,0,三重區,田心里,新北市,三重區,田心里,1171.0,675315.0,577.0,379.0,189.0,725.0,627.81,108.86,三重區,22379.441956094463,三重區,1792.0,1792.0
日月手作茶,5.0,3,冰品飲料店,新北市三重區忠孝路三段40巷50號,25.065847,121.483096,8,50,0,64,25,0,9,0,0,0,三重區,田中里,新北市,三重區,田中里,1899.0,1273685.0,671.0,439.0,217.0,848.0,761.14,113.48,三重區,22379.441956094463,三重區,1792.0,1792.0
麻古茶坊三重中華店,4.0,215,冰品飲料店,新北市三重區中華路97號,25.0631662,121.4836687,8,51,0,65,22,0,8,2,0,0,三重區,田安里,新北市,三重區,田安里,1877.0,1248095.0,665.0,425.0,199.0,806.0,822.42,123.68,三重區,22379.441956094463,三重區,1792.0,1792.0
紅茶洋行-三重國隆2店,5.0,94,冰品飲料店,新北市三重區三民街319號,25.069004,121.4776437,7,33,0,54,21,0,13,0,0,0,三重區,福田里,新北市,三重區,福田里,1043.0,629362.0,603.0,394.0,195.0,762.0,697.08,115.52,三重區,22379.441956094463,三重區,1792.0,1792.0
好了啦紅茶冰三重中華店,3.5,4,冰品飲料店,新北市三重區中華路104號,25.0634266,121.4833296,8,48,0,66,22,0,8,2,0,0,三重區,田心里,新北市,三重區,田心里,1171.0,675315.0,577.0,379.0,189.0,725.0,627.81,108.86,三重區,22379.441956094463,三重區,1792.0,1792.0
My嘟蘭手工綠豆沙牛乳 三重三民店,4.7,7,冰品飲料店,新北市三重區三民街287號,25.0685591,121.4788743,7,36,0,58,22,0,12,0,0,0,三重區,田中里,新北市,三重區,田中里,1899.0,1273685.0,671.0,439.0,217.0,848.0,761.14,113.48,三重區,22379.441956094463,三重區,1792.0,1792.0
李記紅茶冰三重中正北店,4.4,22,冰品飲料店,新北市三重區中正北路244號,25.0679614,121.4816155,9,42,0,68,27,0,9,0,0,0,三重區,田中里,新北市,三重區,田中里,1899.0,1273685.0,671.0,439.0,217.0,848.0,761.14,113.48,三重區,22379.441956094463,三重區,1792.0,1792.0
小茶齋-三重店,4.1,198,冰品飲料店,新北市三重區自強路一段216號,25.0665673,121.4941791,8,114,0,94,19,1,10,3,1,0,三重區,正義里,台北市,中山區,正義里,1759.0,1468795.0,835.0,494.0,225.0,975.0,1181.33,141.47,三重區,22379.441956094463,三重區,1792.0,1792.0
小茶齋-三重店,4.1,198,冰品飲料店,新北市三重區自強路一段216號,25.0665673,121.4941791,8,114,0,94,19,1,10,3,1,0,三重區,正義里,新北市,蘆洲區,正義里,4777.0,5093622.0,1066.0,666.0,292.0,1328.0,1531.72,143.65,三重區,22379.441956094463,三重區,1792.0,1792.0
小茶齋-三重店,4.1,198,冰品飲料店,新北市三重區自強路一段216號,25.0665673,121.4941791,8,114,0,94,19,1,10,3,1,0,三重區,正義里,新北市,三重區,正義里,560.0,396654.0,708.0,401.0,213.0,848.0,1071.82,151.32,三重區,22379.441956094463,三重區,1792.0,1792.0
COMEBUY_三重中華店,4.0,138,冰品飲料店,新北市三重區中華路110號,25.063557,121.483311,8,48,0,65,22,0,8,2,0,0,三重區,田心里,新北市,三重區,田心里,1171.0,675315.0,577.0,379.0,189.0,725.0,627.81,108.86,三重區,22379.441956094463,三重區,1792.0,1792.0
豆佳香?濃豆乳 (豆花),4.9,432,冰品飲料店,新北市三重區新北大道一段82號,25.0616747,121.4862335,8,70,0,63,21,0,10,2,0,0,三重區,田安里,新北市,三重區,田安里,1877.0,1248095.0,665.0,425.0,199.0,806.0,822.42,123.68,三重區,22379.441956094463,三重區,1792.0,1792.0
皇爵-三重商工店,4.1,133,冰品飲料店,新北市三重區忠孝路二段150號,25.0681408,121.4825321,10,47,0,71,26,0,9,0,0,0,三重區,六福里,新北市,五股區,六福里,1165.0,626022.0,537.0,358.0,192.0,651.0,612.73,114.03,三重區,22379.441956094463,三重區,1792.0,1792.0
皇爵-三重商工店,4.1,133,冰品飲料店,新北市三重區忠孝路二段150號,25.0681408,121.4825321,10,47,0,71,26,0,9,0,0,0,三重區,六福里,新北市,三重區,六福里,1616.0,993975.0,615.0,428.0,203.0,774.0,709.45,115.34,三重區,22379.441956094463,三重區,1792.0,1792.0
果拾鮮果茶,4.5,117,冰品飲料店,新北市三重區重新路四段10-1號,25.0579308,121.4890127,6,65,0,48,16,0,16,2,1,0,三重區,光明里,台北市,大安區,光明里,1322.0,2282463.0,1727.0,924.0,351.0,2042.0,3743.82,216.84,三重區,22379.441956094463,三重區,1792.0,1792.0
果拾鮮果茶,4.5,117,冰品飲料店,新北市三重區重新路四段10-1號,25.0579308,121.4890127,6,65,0,48,16,0,16,2,1,0,三重區,光明里,新北市,新莊區,光明里,1431.0,863992.0,604.0,413.0,215.0,759.0,648.21,107.36,三重區,22379.441956094463,三重區,1792.0,1792.0
果拾鮮果茶,4.5,117,冰品飲料店,新北市三重區重新路四段10-1號,25.0579308,121.4890127,6,65,0,48,16,0,16,2,1,0,三重區,光明里,新北市,蘆洲區,光明里,1369.0,921086.0,673.0,446.0,229.0,847.0,765.77,113.82,三重區,22379.441956094463,三重區,1792.0,1792.0
果拾鮮果茶,4.5,117,冰品飲料店,新北市三重區重新路四段10-1號,25.0579308,121.4890127,6,65,0,48,16,0,16,2,1,0,三重區,光明里,新北市,三重區,光明里,2415.0,1973683.0,817.0,484.0,226.0,942.0,1122.91,137.4,三重區,22379.441956094463,三重區,1792.0,1792.0
果拾鮮果茶,4.5,117,冰品飲料店,新北市三重區重新路四段10-1號,25.0579308,121.4890127,6,65,0,48,16,0,16,2,1,0,三重區,光明里,新北市,石碇區,光明里,54.0,36456.0,675.0,369.0,161.0,610.0,1020.11,151.1,三重區,22379.441956094463,三重區,1792.0,1792.0
果拾鮮果茶,4.5,117,冰品飲料店,新北市三重區重新路四段10-1號,25.0579308,121.4890127,6,65,0,48,16,0,16,2,1,0,三重區,光明里,新北市,永和區,光明里,1001.0,884853.0,884.0,579.0,238.0,1110.0,1042.9,117.98,三重區,22379.441956094463,三重區,1792.0,1792.0
鮮茶道(三重自強店),4.0,86,冰品飲料店,新北市三重區自強路一段274號,25.0678294,121.4920615,8,111,0,97,20,0,7,3,1,0,三重區,幸福里,台北市,中正區,幸福里,1718.0,2247150.0,1308.0,690.0,270.0,1551.0,1917.92,146.63,三重區,22379.441956094463,三重區,1792.0,1792.0
鮮茶道(三重自強店),4.0,86,冰品飲料店,新北市三重區自強路一段274號,25.0678294,121.4920615,8,111,0,97,20,0,7,3,1,0,三重區,幸福里,新北市,新莊區,幸福里,1216.0,672991.0,553.0,363.0,178.0,672.0,712.99,128.83,三重區,22379.441956094463,三重區,1792.0,1792.0
鮮茶道(三重自強店),4.0,86,冰品飲料店,新北市三重區自強路一段274號,25.0678294,121.4920615,8,111,0,97,20,0,7,3,1,0,三重區,幸福里,新北市,三重區,幸福里,1362.0,810746.0,595.0,369.0,182.0,720.0,742.18,124.68,三重區,22379.441956094463,三重區,1792.0,1792.0
鮮茶道(三重自強店),4.0,86,冰品飲料店,新北市三重區自強路一段274號,25.0678294,121.4920615,8,111,0,97,20,0,7,3,1,0,三重區,幸福里,新北市,板橋區,幸福里,1140.0,753839.0,661.0,426.0,201.0,802.0,763.68,115.49,三重區,22379.441956094463,三重區,1792.0,1792.0
鮮茶道(三重自強店),4.0,86,冰品飲料店,新北市三重區自強路一段274號,25.0678294,121.4920615,8,111,0,97,20,0,7,3,1,0,三重區,幸福里,新北市,淡水區,幸福里,1154.0,693492.0,601.0,381.0,196.0,741.0,779.07,129.64,三重區,22379.441956094463,三重區,1792.0,1792.0
賞茶,4.0,34,冰品飲料店,新北市三重區忠孝路三段26號,25.0670471,121.4815522,9,40,0,67,24,0,10,0,0,0,三重區,田中里,新北市,三重區,田中里,1899.0,1273685.0,671.0,439.0,217.0,848.0,761.14,113.48,三重區,22379.441956094463,三重區,1792.0,1792.0
李記紅茶冰-三重集美店（原中正南店）,5.0,22,冰品飲料店,新北市三重區集美街126巷5號,25.053445,121.4893736,3,43,0,28,13,0,14,2,0,0,三重區,光明里,台北市,大安區,光明里,1322.0,2282463.0,1727.0,924.0,351.0,2042.0,3743.82,216.84,三重區,22379.441956094463,三重區,1792.0,1792.0
李記紅茶冰-三重集美店（原中正南店）,5.0,22,冰品飲料店,新北市三重區集美街126巷5號,25.053445,121.4893736,3,43,0,28,13,0,14,2,0,0,三重區,光明里,新北市,新莊區,光明里,1431.0,863992.0,604.0,413.0,215.0,759.0,648.21,107.36,三重區,22379.441956094463,三重區,1792.0,1792.0
李記紅茶冰-三重集美店（原中正南店）,5.0,22,冰品飲料店,新北市三重區集美街126巷5號,25.053445,121.4893736,3,43,0,28,13,0,14,2,0,0,三重區,光明里,新北市,蘆洲區,光明里,1369.0,921086.0,673.0,446.0,229.0,847.0,765.77,113.82,三重區,22379.441956094463,三重區,1792.0,1792.0
李記紅茶冰-三重集美店（原中正南店）,5.0,22,冰品飲料店,新北市三重區集美街126巷5號,25.053445,121.4893736,3,43,0,28,13,0,14,2,0,0,三重區,光明里,新北市,三重區,光明里,2415.0,1973683.0,817.0,484.0,226.0,942.0,1122.91,137.4,三重區,22379.441956094463,三重區,1792.0,1792.0
李記紅茶冰-三重集美店（原中正南店）,5.0,22,冰品飲料店,新北市三重區集美街126巷5號,25.053445,121.4893736,3,43,0,28,13,0,14,2,0,0,三重區,光明里,新北市,石碇區,光明里,54.0,36456.0,675.0,369.0,161.0,610.0,1020.11,151.1,三重區,22379.441956094463,三重區,1792.0,1792.0
李記紅茶冰-三重集美店（原中正南店）,5.0,22,冰品飲料店,新北市三重區集美街126巷5號,25.053445,121.4893736,3,43,0,28,13,0,14,2,0,0,三重區,光明里,新北市,永和區,光明里,1001.0,884853.0,884.0,579.0,238.0,1110.0,1042.9,117.98,三重區,22379.441956094463,三重區,1792.0,1792.0
Baroness小黑糖 雲端,4.2,515,冰品飲料店,新北市三重區新北大道ㄧ段57巷1樓號,25.0607358,121.4858278,8,62,0,61,23,0,11,2,0,0,三重區,光田里,新北市,三重區,光田里,1425.0,1081774.0,759.0,473.0,235.0,925.0,1160.34,152.85,三重區,22379.441956094463,三重區,1792.0,1792.0
CoCo都可 三重自強店,4.1,136,冰品飲料店,新北市三重區自強路一段250號,25.067316,121.492584,8,115,0,95,20,1,7,3,1,0,三重區,民生里,新北市,三重區,民生里,1203.0,692273.0,575.0,367.0,170.0,676.0,766.31,133.17,三重區,22379.441956094463,三重區,1792.0,1792.0
CoCo都可 三重自強店,4.1,136,冰品飲料店,新北市三重區自強路一段250號,25.067316,121.492584,8,115,0,95,20,1,7,3,1,0,三重區,民生里,新北市,板橋區,民生里,699.0,619944.0,887.0,517.0,260.0,1031.0,1987.36,224.08,三重區,22379.441956094463,三重區,1792.0,1792.0
CoCo都可 三重自強店,4.1,136,冰品飲料店,新北市三重區自強路一段250號,25.067316,121.492584,8,115,0,95,20,1,7,3,1,0,三重區,民生里,新北市,中和區,民生里,1289.0,1009507.0,783.0,521.0,248.0,980.0,856.71,109.39,三重區,22379.441956094463,三重區,1792.0,1792.0
CoCo都可 三重自強店,4.1,136,冰品飲料店,新北市三重區自強路一段250號,25.067316,121.492584,8,115,0,95,20,1,7,3,1,0,三重區,民生里,新北市,淡水區,民生里,2554.0,2018786.0,790.0,474.0,219.0,1010.0,1002.26,126.8,三重區,22379.441956094463,三重區,1792.0,1792.0
CoCo都可 三重自強店,4.1,136,冰品飲料店,新北市三重區自強路一段250號,25.067316,121.492584,8,115,0,95,20,1,7,3,1,0,三重區,民生里,新北市,永和區,民生里,1164.0,912754.0,784.0,482.0,237.0,1037.0,872.52,111.27,三重區,22379.441956094463,三重區,1792.0,1792.0
我想做愛 玉,4.5,183,冰品飲料店,新北市三重區重安街57號,25.0563132,121.4918638,5,61,0,44,14,0,14,2,1,0,三重區,光明里,台北市,大安區,光明里,1322.0,2282463.0,1727.0,924.0,351.0,2042.0,3743.82,216.84,三重區,22379.441956094463,三重區,1792.0,1792.0
我想做愛 玉,4.5,183,冰品飲料店,新北市三重區重安街57號,25.0563132,121.4918638,5,61,0,44,14,0,14,2,1,0,三重區,光明里,新北市,新莊區,光明里,1431.0,863992.0,604.0,413.0,215.0,759.0,648.21,107.36,三重區,22379.441956094463,三重區,1792.0,1792.0
我想做愛 玉,4.5,183,冰品飲料店,新北市三重區重安街57號,25.0563132,121.4918638,5,61,0,44,14,0,14,2,1,0,三重區,光明里,新北市,蘆洲區,光明里,1369.0,921086.0,673.0,446.0,229.0,847.0,765.77,113.82,三重區,22379.441956094463,三重區,1792.0,1792.0
我想做愛 玉,4.5,183,冰品飲料店,新北市三重區重安街57號,25.0563132,121.4918638,5,61,0,44,14,0,14,2,1,0,三重區,光明里,新北市,三重區,光明里,2415.0,1973683.0,817.0,484.0,226.0,942.0,1122.91,137.4,三重區,22379.441956094463,三重區,1792.0,1792.0
我想做愛 玉,4.5,183,冰品飲料店,新北市三重區重安街57號,25.0563132,121.4918638,5,61,0,44,14,0,14,2,1,0,三重區,光明里,新北市,石碇區,光明里,54.0,36456.0,675.0,369.0,161.0,610.0,1020.11,151.1,三重區,22379.441956094463,三重區,1792.0,1792.0
我想做愛 玉,4.5,183,冰品飲料店,新北市三重區重安街57號,25.0563132,121.4918638,5,61,0,44,14,0,14,2,1,0,三重區,光明里,新北市,永和區,光明里,1001.0,884853.0,884.0,579.0,238.0,1110.0,1042.9,117.98,三重區,22379.441956094463,三重區,1792.0,1792.0
"萬金紅茶冰 (01/15 - 02/21寒假休息中, 02/22開始營業, 有任何更新請關注FB粉絲專頁)",3.8,643,冰品飲料店,新北市三重區中正南路75號,25.0589761,121.494105,6,90,0,53,14,1,15,2,1,0,三重區,吉利里,台北市,北投區,吉利里,2223.0,2129092.0,958.0,600.0,243.0,1254.0,1228.72,128.29,三重區,22379.441956094463,三重區,1792.0,1792.0
"萬金紅茶冰 (01/15 - 02/21寒假休息中, 02/22開始營業, 有任何更新請關注FB粉絲專頁)",3.8,643,冰品飲料店,新北市三重區中正南路75號,25.0589761,121.494105,6,90,0,53,14,1,15,2,1,0,三重區,吉利里,新北市,三重區,吉利里,408.0,236674.0,580.0,397.0,196.0,725.0,669.03,115.33,三重區,22379.441956094463,三重區,1792.0,1792.0
交心茶,4.4,86,冰品飲料店,新北市三重區集美街184號,25.0534977,121.490538,3,42,0,32,14,0,15,2,0,0,三重區,光明里,台北市,大安區,光明里,1322.0,2282463.0,1727.0,924.0,351.0,2042.0,3743.82,216.84,三重區,22379.441956094463,三重區,1792.0,1792.0
交心茶,4.4,86,冰品飲料店,新北市三重區集美街184號,25.0534977,121.490538,3,42,0,32,14,0,15,2,0,0,三重區,光明里,新北市,新莊區,光明里,1431.0,863992.0,604.0,413.0,215.0,759.0,648.21,107.36,三重區,22379.441956094463,三重區,1792.0,1792.0
交心茶,4.4,86,冰品飲料店,新北市三重區集美街184號,25.0534977,121.490538,3,42,0,32,14,0,15,2,0,0,三重區,光明里,新北市,蘆洲區,光明里,1369.0,921086.0,673.0,446.0,229.0,847.0,765.77,113.82,三重區,22379.441956094463,三重區,1792.0,1792.0
交心茶,4.4,86,冰品飲料店,新北市三重區集美街184號,25.0534977,121.490538,3,42,0,32,14,0,15,2,0,0,三重區,光明里,新北市,三重區,光明里,2415.0,1973683.0,817.0,484.0,226.0,942.0,1122.91,137.4,三重區,22379.441956094463,三重區,1792.0,1792.0
交心茶,4.4,86,冰品飲料店,新北市三重區集美街184號,25.0534977,121.490538,3,42,0,32,14,0,15,2,0,0,三重區,光明里,新北市,石碇區,光明里,54.0,36456.0,675.0,369.0,161.0,610.0,1020.11,151.1,三重區,22379.441956094463,三重區,1792.0,1792.0
交心茶,4.4,86,冰品飲料店,新北市三重區集美街184號,25.0534977,121.490538,3,42,0,32,14,0,15,2,0,0,三重區,光明里,新北市,永和區,光明里,1001.0,884853.0,884.0,579.0,238.0,1110.0,1042.9,117.98,三重區,22379.441956094463,三重區,1792.0,1792.0
喫點冰 / 三重冰店 / 三重豆花 / 芒果冰 / 燒仙草,4.6,71,冰品飲料店,新北市三重區洛陽街23號1樓,25.0632801,121.4827173,8,44,0,63,22,0,9,2,0,0,三重區,田心里,新北市,三重區,田心里,1171.0,675315.0,577.0,379.0,189.0,725.0,627.81,108.86,三重區,22379.441956094463,三重區,1792.0,1792.0
茶詠春-三重自強店,4.0,36,冰品飲料店,新北市三重區自強路一段194號,25.0662299,121.494732,7,113,0,88,19,1,10,3,1,0,三重區,正義里,台北市,中山區,正義里,1759.0,1468795.0,835.0,494.0,225.0,975.0,1181.33,141.47,三重區,22379.441956094463,三重區,1792.0,1792.0
茶詠春-三重自強店,4.0,36,冰品飲料店,新北市三重區自強路一段194號,25.0662299,121.494732,7,113,0,88,19,1,10,3,1,0,三重區,正義里,新北市,蘆洲區,正義里,4777.0,5093622.0,1066.0,666.0,292.0,1328.0,1531.72,143.65,三重區,22379.441956094463,三重區,1792.0,1792.0
茶詠春-三重自強店,4.0,36,冰品飲料店,新北市三重區自強路一段194號,25.0662299,121.494732,7,113,0,88,19,1,10,3,1,0,三重區,正義里,新北市,三重區,正義里,560.0,396654.0,708.0,401.0,213.0,848.0,1071.82,151.32,三重區,22379.441956094463,三重區,1792.0,1792.0
TEATOP第一味 三重大智店,4.4,76,冰品飲料店,新北市三重區大智街61號,25.0679526,121.4926354,8,108,0,92,18,1,7,3,1,0,三重區,安慶里,新北市,三重區,安慶里,593.0,305414.0,515.0,361.0,166.0,641.0,629.87,122.3,三重區,22379.441956094463,三重區,1792.0,1792.0
MOK米歐克三重店,4.8,132,冰品飲料店,新北市三重區中正南路2號1樓,25.0607328,121.4934458,6,113,0,63,16,1,15,2,1,0,三重區,大同里,台北市,北投區,大同里,1870.0,1826018.0,976.0,496.0,231.0,1116.0,1579.7,161.77,三重區,22379.441956094463,三重區,1792.0,1792.0
MOK米歐克三重店,4.8,132,冰品飲料店,新北市三重區中正南路2號1樓,25.0607328,121.4934458,6,113,0,63,16,1,15,2,1,0,三重區,大同里,新北市,三重區,大同里,633.0,425556.0,672.0,444.0,202.0,840.0,753.11,112.02,三重區,22379.441956094463,三重區,1792.0,1792.0
MOK米歐克三重店,4.8,132,冰品飲料店,新北市三重區中正南路2號1樓,25.0607328,121.4934458,6,113,0,63,16,1,15,2,1,0,三重區,大同里,新北市,新店區,大同里,1398.0,1273274.0,911.0,529.0,228.0,1115.0,1579.17,173.39,三重區,22379.441956094463,三重區,1792.0,1792.0
MOK米歐克三重店,4.8,132,冰品飲料店,新北市三重區中正南路2號1樓,25.0607328,121.4934458,6,113,0,63,16,1,15,2,1,0,三重區,大同里,新北市,樹林區,大同里,1151.0,704815.0,612.0,434.0,209.0,805.0,609.51,99.54,三重區,22379.441956094463,三重區,1792.0,1792.0
MOK米歐克三重店,4.8,132,冰品飲料店,新北市三重區中正南路2號1樓,25.0607328,121.4934458,6,113,0,63,16,1,15,2,1,0,三重區,大同里,新北市,金山區,大同里,174.0,87620.0,504.0,361.0,166.0,697.0,464.96,92.33,三重區,22379.441956094463,三重區,1792.0,1792.0
MOK米歐克三重店,4.8,132,冰品飲料店,新北市三重區中正南路2號1樓,25.0607328,121.4934458,6,113,0,63,16,1,15,2,1,0,三重區,大同里,新北市,汐止區,大同里,1008.0,776319.0,770.0,478.0,226.0,934.0,939.25,121.96,三重區,22379.441956094463,三重區,1792.0,1792.0
MOK米歐克三重店,4.8,132,冰品飲料店,新北市三重區中正南路2號1樓,25.0607328,121.4934458,6,113,0,63,16,1,15,2,1,0,三重區,大同里,新北市,永和區,大同里,319.0,236908.0,743.0,443.0,187.0,803.0,1124.85,151.46,三重區,22379.441956094463,三重區,1792.0,1792.0
千千杯甜品（黑糖刨冰｜雪花冰｜甜湯｜傳統豆花）,4.8,128,冰品飲料店,新北市三重區重陽路一段101號,25.0595389,121.4869944,6,63,0,55,19,0,11,2,0,0,三重區,過田里,新北市,三重區,過田里,2099.0,1615513.0,770.0,422.0,210.0,883.0,1858.94,241.53,三重區,22379.441956094463,三重區,1792.0,1792.0
毒水製茶｜珍珠奶茶｜手搖飲料專賣店,5.0,45,冰品飲料店,新北市三重區環河南路221巷27號,25.052812,121.4913685,3,40,0,29,12,0,13,2,0,0,三重區,福民里,新北市,三重區,福民里,1001.0,573981.0,573.0,388.0,183.0,724.0,652.67,113.82,三重區,22379.441956094463,三重區,1792.0,1792.0
毒水製茶｜珍珠奶茶｜手搖飲料專賣店,5.0,45,冰品飲料店,新北市三重區環河南路221巷27號,25.052812,121.4913685,3,40,0,29,12,0,13,2,0,0,三重區,福民里,新北市,新店區,福民里,1417.0,1282125.0,905.0,549.0,239.0,1116.0,1487.18,164.36,三重區,22379.441956094463,三重區,1792.0,1792.0
武林茶三重集美店,4.2,52,冰品飲料店,新北市三重區集美街161號,25.053387,121.4908528,3,42,0,32,12,0,15,2,0,0,三重區,福民里,新北市,三重區,福民里,1001.0,573981.0,573.0,388.0,183.0,724.0,652.67,113.82,三重區,22379.441956094463,三重區,1792.0,1792.0
武林茶三重集美店,4.2,52,冰品飲料店,新北市三重區集美街161號,25.053387,121.4908528,3,42,0,32,12,0,15,2,0,0,三重區,福民里,新北市,新店區,福民里,1417.0,1282125.0,905.0,549.0,239.0,1116.0,1487.18,164.36,三重區,22379.441956094463,三重區,1792.0,1792.0
CoCo都可 集美店,3.8,258,冰品飲料店,新北市三重區集美街208號,25.054221,121.491145,4,45,0,35,13,0,14,2,0,0,三重區,光明里,台北市,大安區,光明里,1322.0,2282463.0,1727.0,924.0,351.0,2042.0,3743.82,216.84,三重區,22379.441956094463,三重區,1792.0,1792.0
CoCo都可 集美店,3.8,258,冰品飲料店,新北市三重區集美街208號,25.054221,121.491145,4,45,0,35,13,0,14,2,0,0,三重區,光明里,新北市,新莊區,光明里,1431.0,863992.0,604.0,413.0,215.0,759.0,648.21,107.36,三重區,22379.441956094463,三重區,1792.0,1792.0
CoCo都可 集美店,3.8,258,冰品飲料店,新北市三重區集美街208號,25.054221,121.491145,4,45,0,35,13,0,14,2,0,0,三重區,光明里,新北市,蘆洲區,光明里,1369.0,921086.0,673.0,446.0,229.0,847.0,765.77,113.82,三重區,22379.441956094463,三重區,1792.0,1792.0
CoCo都可 集美店,3.8,258,冰品飲料店,新北市三重區集美街208號,25.054221,121.491145,4,45,0,35,13,0,14,2,0,0,三重區,光明里,新北市,三重區,光明里,2415.0,1973683.0,817.0,484.0,226.0,942.0,1122.91,137.4,三重區,22379.441956094463,三重區,1792.0,1792.0
CoCo都可 集美店,3.8,258,冰品飲料店,新北市三重區集美街208號,25.054221,121.491145,4,45,0,35,13,0,14,2,0,0,三重區,光明里,新北市,石碇區,光明里,54.0,36456.0,675.0,369.0,161.0,610.0,1020.11,151.1,三重區,22379.441956094463,三重區,1792.0,1792.0
CoCo都可 集美店,3.8,258,冰品飲料店,新北市三重區集美街208號,25.054221,121.491145,4,45,0,35,13,0,14,2,0,0,三重區,光明里,新北市,永和區,光明里,1001.0,884853.0,884.0,579.0,238.0,1110.0,1042.9,117.98,三重區,22379.441956094463,三重區,1792.0,1792.0
50嵐 中正北店,3.9,433,冰品飲料店,新北市三重區中正北路157號,25.0676882,121.482372,10,45,0,70,26,0,10,0,0,0,三重區,六福里,新北市,五股區,六福里,1165.0,626022.0,537.0,358.0,192.0,651.0,612.73,114.03,三重區,22379.441956094463,三重區,1792.0,1792.0
50嵐 中正北店,3.9,433,冰品飲料店,新北市三重區中正北路157號,25.0676882,121.482372,10,45,0,70,26,0,10,0,0,0,三重區,六福里,新北市,三重區,六福里,1616.0,993975.0,615.0,428.0,203.0,774.0,709.45,115.34,三重區,22379.441956094463,三重區,1792.0,1792.0
喫茶趣ToGo(三重店),0.0,0,冰品飲料店,新北市三重區重新路二段15之2號,25.062551,121.4984016,7,100,0,54,13,1,12,3,1,0,三重區,文化里,台北市,北投區,文化里,1358.0,1239204.0,913.0,569.0,248.0,1186.0,1073.63,117.66,三重區,22379.441956094463,三重區,1792.0,1792.0
喫茶趣ToGo(三重店),0.0,0,冰品飲料店,新北市三重區重新路二段15之2號,25.062551,121.4984016,7,100,0,54,13,1,12,3,1,0,三重區,文化里,新北市,三重區,文化里,651.0,425392.0,653.0,371.0,203.0,757.0,969.86,148.42,三重區,22379.441956094463,三重區,1792.0,1792.0
喫茶趣ToGo(三重店),0.0,0,冰品飲料店,新北市三重區重新路二段15之2號,25.062551,121.4984016,7,100,0,54,13,1,12,3,1,0,三重區,文化里,新北市,板橋區,文化里,1060.0,987633.0,932.0,482.0,228.0,1069.0,1268.9,136.19,三重區,22379.441956094463,三重區,1792.0,1792.0
喫茶趣ToGo(三重店),0.0,0,冰品飲料店,新北市三重區重新路二段15之2號,25.062551,121.4984016,7,100,0,54,13,1,12,3,1,0,三重區,文化里,新北市,淡水區,文化里,538.0,350510.0,652.0,427.0,187.0,847.0,783.5,120.26,三重區,22379.441956094463,三重區,1792.0,1792.0
喫茶趣ToGo(三重店),0.0,0,冰品飲料店,新北市三重區重新路二段15之2號,25.062551,121.4984016,7,100,0,54,13,1,12,3,1,0,三重區,文化里,新北市,汐止區,文化里,1657.0,1428700.0,862.0,519.0,238.0,1096.0,1034.83,120.02,三重區,22379.441956094463,三重區,1792.0,1792.0
喫茶趣ToGo(三重店),0.0,0,冰品飲料店,新北市三重區重新路二段15之2號,25.062551,121.4984016,7,100,0,54,13,1,12,3,1,0,三重區,文化里,新北市,永和區,文化里,868.0,787345.0,907.0,486.0,231.0,1074.0,1489.19,164.17,三重區,22379.441956094463,三重區,1792.0,1792.0
茶聚CHAGE三重信義店｜香片領導品牌,4.8,130,冰品飲料店,新北市三重區信義西街50號,25.064559,121.498104,7,105,0,69,14,1,11,3,1,0,三重區,文化里,台北市,北投區,文化里,1358.0,1239204.0,913.0,569.0,248.0,1186.0,1073.63,117.66,三重區,22379.441956094463,三重區,1792.0,1792.0
茶聚CHAGE三重信義店｜香片領導品牌,4.8,130,冰品飲料店,新北市三重區信義西街50號,25.064559,121.498104,7,105,0,69,14,1,11,3,1,0,三重區,文化里,新北市,三重區,文化里,651.0,425392.0,653.0,371.0,203.0,757.0,969.86,148.42,三重區,22379.441956094463,三重區,1792.0,1792.0
茶聚CHAGE三重信義店｜香片領導品牌,4.8,130,冰品飲料店,新北市三重區信義西街50號,25.064559,121.498104,7,105,0,69,14,1,11,3,1,0,三重區,文化里,新北市,板橋區,文化里,1060.0,987633.0,932.0,482.0,228.0,1069.0,1268.9,136.19,三重區,22379.441956094463,三重區,1792.0,1792.0
茶聚CHAGE三重信義店｜香片領導品牌,4.8,130,冰品飲料店,新北市三重區信義西街50號,25.064559,121.498104,7,105,0,69,14,1,11,3,1,0,三重區,文化里,新北市,淡水區,文化里,538.0,350510.0,652.0,427.0,187.0,847.0,783.5,120.26,三重區,22379.441956094463,三重區,1792.0,1792.0
茶聚CHAGE三重信義店｜香片領導品牌,4.8,130,冰品飲料店,新北市三重區信義西街50號,25.064559,121.498104,7,105,0,69,14,1,11,3,1,0,三重區,文化里,新北市,汐止區,文化里,1657.0,1428700.0,862.0,519.0,238.0,1096.0,1034.83,120.02,三重區,22379.441956094463,三重區,1792.0,1792.0
茶聚CHAGE三重信義店｜香片領導品牌,4.8,130,冰品飲料店,新北市三重區信義西街50號,25.064559,121.498104,7,105,0,69,14,1,11,3,1,0,三重區,文化里,新北市,永和區,文化里,868.0,787345.0,907.0,486.0,231.0,1074.0,1489.19,164.17,三重區,22379.441956094463,三重區,1792.0,1792.0
Good Drink讚豆綠豆冰沙三重大智店,4.8,15,冰品飲料店,新北市三重區大仁街62號,25.0650737,121.4922754,7,127,0,93,22,1,9,3,1,0,三重區,國隆里,新北市,三重區,國隆里,815.0,533081.0,654.0,417.0,205.0,843.0,738.22,112.86,三重區,22379.441956094463,三重區,1792.0,1792.0
花好月圓 茶飲專賣-三重自強店,4.9,222,冰品飲料店,新北市三重區自強路一段95號,25.0664186,121.4959195,7,107,0,84,19,1,12,3,1,0,三重區,正安里,新北市,三重區,正安里,567.0,366575.0,647.0,417.0,217.0,775.0,777.73,120.3,三重區,22379.441956094463,三重區,1792.0,1792.0
滿上-仙草愛玉茶飲專賣店-正義北店,4.4,118,冰品飲料店,新北市三重區正義北路231號1樓,25.0690676,121.4960269,7,105,0,82,18,1,10,2,1,0,三重區,三安里,新北市,三重區,三安里,765.0,472367.0,617.0,395.0,181.0,751.0,862.91,139.75,三重區,22379.441956094463,三重區,1792.0,1792.0
好了啦紅茶冰-三重車路頭,4.9,15,冰品飲料店,新北市三重區車路頭街50號,25.0721624,121.4838146,11,55,0,85,19,0,3,1,0,0,三重區,永煇里,新北市,三重區,永煇里,688.0,379972.0,552.0,371.0,195.0,701.0,608.82,110.24,三重區,22379.441956094463,三重區,1792.0,1792.0
鶴玥茶坊,4.8,35,冰品飲料店,新北市三重區中正北路256號,25.0681206,121.4813597,10,41,0,65,27,0,9,0,0,0,三重區,田中里,新北市,三重區,田中里,1899.0,1273685.0,671.0,439.0,217.0,848.0,761.14,113.48,三重區,22379.441956094463,三重區,1792.0,1792.0
麻古茶坊三重正義店,4.0,192,冰品飲料店,新北市三重區正義北路61號,25.064415,121.497399,7,107,0,72,16,1,11,3,1,0,三重區,文化里,台北市,北投區,文化里,1358.0,1239204.0,913.0,569.0,248.0,1186.0,1073.63,117.66,三重區,22379.441956094463,三重區,1792.0,1792.0
麻古茶坊三重正義店,4.0,192,冰品飲料店,新北市三重區正義北路61號,25.064415,121.497399,7,107,0,72,16,1,11,3,1,0,三重區,文化里,新北市,三重區,文化里,651.0,425392.0,653.0,371.0,203.0,757.0,969.86,148.42,三重區,22379.441956094463,三重區,1792.0,1792.0
麻古茶坊三重正義店,4.0,192,冰品飲料店,新北市三重區正義北路61號,25.064415,121.497399,7,107,0,72,16,1,11,3,1,0,三重區,文化里,新北市,板橋區,文化里,1060.0,987633.0,932.0,482.0,228.0,1069.0,1268.9,136.19,三重區,22379.441956094463,三重區,1792.0,1792.0
麻古茶坊三重正義店,4.0,192,冰品飲料店,新北市三重區正義北路61號,25.064415,121.497399,7,107,0,72,16,1,11,3,1,0,三重區,文化里,新北市,淡水區,文化里,538.0,350510.0,652.0,427.0,187.0,847.0,783.5,120.26,三重區,22379.441956094463,三重區,1792.0,1792.0
麻古茶坊三重正義店,4.0,192,冰品飲料店,新北市三重區正義北路61號,25.064415,121.497399,7,107,0,72,16,1,11,3,1,0,三重區,文化里,新北市,汐止區,文化里,1657.0,1428700.0,862.0,519.0,238.0,1096.0,1034.83,120.02,三重區,22379.441956094463,三重區,1792.0,1792.0
麻古茶坊三重正義店,4.0,192,冰品飲料店,新北市三重區正義北路61號,25.064415,121.497399,7,107,0,72,16,1,11,3,1,0,三重區,文化里,新北市,永和區,文化里,868.0,787345.0,907.0,486.0,231.0,1074.0,1489.19,164.17,三重區,22379.441956094463,三重區,1792.0,1792.0
得正#三重正義計劃 Oolong Tea Project,3.9,220,冰品飲料店,新北市三重區正義北路46號,25.0636445,121.4972927,7,105,0,67,15,1,11,3,1,0,三重區,正德里,新北市,三重區,正德里,299.0,164117.0,549.0,360.0,146.0,719.0,687.96,125.34,三重區,22379.441956094463,三重區,1792.0,1792.0
得正#三重正義計劃 Oolong Tea Project,3.9,220,冰品飲料店,新北市三重區正義北路46號,25.0636445,121.4972927,7,105,0,67,15,1,11,3,1,0,三重區,正德里,新北市,淡水區,正德里,1532.0,1043404.0,681.0,451.0,208.0,892.0,802.92,117.89,三重區,22379.441956094463,三重區,1792.0,1792.0
都渴以 三重店,4.6,48,冰品飲料店,新北市三重區文化北路226巷49號,25.0691258,121.4964408,7,104,0,77,17,1,9,2,1,0,三重區,三安里,新北市,三重區,三安里,765.0,472367.0,617.0,395.0,181.0,751.0,862.91,139.75,三重區,22379.441956094463,三重區,1792.0,1792.0
茶詠春-創始店（三重中正北店）,4.7,365,冰品飲料店,新北市三重區中正北路189-1號,25.0696736,121.4773844,7,31,0,52,21,0,13,0,0,0,三重區,永發里,新北市,三重區,永發里,1937.0,1356004.0,700.0,436.0,218.0,873.0,853.43,121.91,三重區,22379.441956094463,三重區,1792.0,1792.0
金茶伍手作飲品-三重車路頭門市 woo cha tea shop,4.9,422,冰品飲料店,新北市三重區車路頭街99號,25.0745059,121.4846201,7,63,0,90,21,0,4,2,0,0,三重區,永盛里,新北市,三重區,永盛里,811.0,475815.0,587.0,397.0,213.0,712.0,658.42,112.22,三重區,22379.441956094463,三重區,1792.0,1792.0
清心福全三重重陽店-珍珠奶茶手搖飲料專賣店,3.3,134,冰品飲料店,新北市三重區重陽路一段71號,25.058788,121.486902,5,62,0,51,20,0,11,2,0,0,三重區,過田里,新北市,三重區,過田里,2099.0,1615513.0,770.0,422.0,210.0,883.0,1858.94,241.53,三重區,22379.441956094463,三重區,1792.0,1792.0
進發家-三重三和店,3.7,125,冰品飲料店,新北市三重區三和路三段32號,25.070546,121.4962337,6,101,0,81,20,1,7,2,1,0,三重區,三安里,新北市,三重區,三安里,765.0,472367.0,617.0,395.0,181.0,751.0,862.91,139.75,三重區,22379.441956094463,三重區,1792.0,1792.0
清心福全三重自強店-珍珠奶茶手搖飲料專賣店,3.8,90,冰品飲料店,新北市三重區自強路一段314號,25.0684778,121.4910977,8,109,0,95,19,0,6,2,1,0,三重區,幸福里,台北市,中正區,幸福里,1718.0,2247150.0,1308.0,690.0,270.0,1551.0,1917.92,146.63,三重區,22379.441956094463,三重區,1792.0,1792.0
清心福全三重自強店-珍珠奶茶手搖飲料專賣店,3.8,90,冰品飲料店,新北市三重區自強路一段314號,25.0684778,121.4910977,8,109,0,95,19,0,6,2,1,0,三重區,幸福里,新北市,新莊區,幸福里,1216.0,672991.0,553.0,363.0,178.0,672.0,712.99,128.83,三重區,22379.441956094463,三重區,1792.0,1792.0
清心福全三重自強店-珍珠奶茶手搖飲料專賣店,3.8,90,冰品飲料店,新北市三重區自強路一段314號,25.0684778,121.4910977,8,109,0,95,19,0,6,2,1,0,三重區,幸福里,新北市,三重區,幸福里,1362.0,810746.0,595.0,369.0,182.0,720.0,742.18,124.68,三重區,22379.441956094463,三重區,1792.0,1792.0
清心福全三重自強店-珍珠奶茶手搖飲料專賣店,3.8,90,冰品飲料店,新北市三重區自強路一段314號,25.0684778,121.4910977,8,109,0,95,19,0,6,2,1,0,三重區,幸福里,新北市,板橋區,幸福里,1140.0,753839.0,661.0,426.0,201.0,802.0,763.68,115.49,三重區,22379.441956094463,三重區,1792.0,1792.0
清心福全三重自強店-珍珠奶茶手搖飲料專賣店,3.8,90,冰品飲料店,新北市三重區自強路一段314號,25.0684778,121.4910977,8,109,0,95,19,0,6,2,1,0,三重區,幸福里,新北市,淡水區,幸福里,1154.0,693492.0,601.0,381.0,196.0,741.0,779.07,129.64,三重區,22379.441956094463,三重區,1792.0,1792.0
貞茶社,5.0,31,冰品飲料店,新北市三重區信義街50號隔壁,25.0652024,121.5009461,4,100,0,52,13,1,10,2,1,0,三重區,光華里,新北市,新莊區,光華里,2095.0,1258512.0,601.0,405.0,208.0,757.0,707.49,117.77,三重區,22379.441956094463,三重區,1792.0,1792.0
貞茶社,5.0,31,冰品飲料店,新北市三重區信義街50號隔壁,25.0652024,121.5009461,4,100,0,52,13,1,10,2,1,0,三重區,光華里,新北市,蘆洲區,光華里,1547.0,1046073.0,676.0,428.0,207.0,833.0,829.52,122.68,三重區,22379.441956094463,三重區,1792.0,1792.0
貞茶社,5.0,31,冰品飲料店,新北市三重區信義街50號隔壁,25.0652024,121.5009461,4,100,0,52,13,1,10,2,1,0,三重區,光華里,新北市,三重區,光華里,774.0,579252.0,748.0,478.0,222.0,908.0,1061.51,141.84,三重區,22379.441956094463,三重區,1792.0,1792.0
貞茶社,5.0,31,冰品飲料店,新北市三重區信義街50號隔壁,25.0652024,121.5009461,4,100,0,52,13,1,10,2,1,0,三重區,光華里,新北市,板橋區,光華里,887.0,683510.0,771.0,480.0,208.0,959.0,961.78,124.81,三重區,22379.441956094463,三重區,1792.0,1792.0
紅茶洋行-三重國隆店,4.7,76,冰品飲料店,新北市三重區國隆路16號,25.0639905,121.4929275,8,121,0,86,19,1,9,3,1,0,三重區,國隆里,新北市,三重區,國隆里,815.0,533081.0,654.0,417.0,205.0,843.0,738.22,112.86,三重區,22379.441956094463,三重區,1792.0,1792.0
62茶亭（三重店）,4.9,159,冰品飲料店,新北市三重區文化北路244號,25.0697731,121.4973473,5,99,0,77,18,1,9,2,1,0,三重區,三安里,新北市,三重區,三安里,765.0,472367.0,617.0,395.0,181.0,751.0,862.91,139.75,三重區,22379.441956094463,三重區,1792.0,1792.0
COMEBUY_三重大同店,3.6,158,冰品飲料店,新北市三重區大同北路42號,25.0628124,121.4951365,8,109,0,70,16,1,12,3,1,0,三重區,中山里,台北市,中山區,中山里,2575.0,2442984.0,949.0,522.0,226.0,1073.0,1585.24,167.09,三重區,22379.441956094463,三重區,1792.0,1792.0
COMEBUY_三重大同店,3.6,158,冰品飲料店,新北市三重區大同北路42號,25.0628124,121.4951365,8,109,0,70,16,1,12,3,1,0,三重區,中山里,新北市,三重區,中山里,904.0,734047.0,812.0,444.0,219.0,953.0,1258.35,154.97,三重區,22379.441956094463,三重區,1792.0,1792.0
COMEBUY_三重大同店,3.6,158,冰品飲料店,新北市三重區大同北路42號,25.0628124,121.4951365,8,109,0,70,16,1,12,3,1,0,三重區,中山里,新北市,新店區,中山里,1995.0,2957843.0,1483.0,830.0,323.0,1762.0,2710.11,182.79,三重區,22379.441956094463,三重區,1792.0,1792.0
COMEBUY_三重大同店,3.6,158,冰品飲料店,新北市三重區大同北路42號,25.0628124,121.4951365,8,109,0,70,16,1,12,3,1,0,三重區,中山里,新北市,板橋區,中山里,2148.0,1465513.0,682.0,476.0,224.0,890.0,765.87,112.25,三重區,22379.441956094463,三重區,1792.0,1792.0
COMEBUY_三重大同店,3.6,158,冰品飲料店,新北市三重區大同北路42號,25.0628124,121.4951365,8,109,0,70,16,1,12,3,1,0,三重區,中山里,新北市,樹林區,中山里,1529.0,924449.0,605.0,407.0,213.0,750.0,658.9,108.98,三重區,22379.441956094463,三重區,1792.0,1792.0
COMEBUY_三重大同店,3.6,158,冰品飲料店,新北市三重區大同北路42號,25.0628124,121.4951365,8,109,0,70,16,1,12,3,1,0,三重區,中山里,新北市,中和區,中山里,787.0,570278.0,725.0,486.0,233.0,836.0,966.85,133.43,三重區,22379.441956094463,三重區,1792.0,1792.0
零下21°C 綿綿冰,4.4,925,冰品飲料店,新北市三重區重新路四段106號,25.0567129,121.4873572,5,56,0,42,18,0,15,2,0,0,三重區,福祉里,新北市,三重區,福祉里,1927.0,1608201.0,835.0,488.0,234.0,1016.0,1543.96,185.0,三重區,22379.441956094463,三重區,1792.0,1792.0
50嵐 重新店,3.8,204,冰品飲料店,新北市三重區重新路三段5號,25.0616888,121.4953704,7,109,0,68,16,1,12,2,1,0,三重區,中山里,台北市,中山區,中山里,2575.0,2442984.0,949.0,522.0,226.0,1073.0,1585.24,167.09,三重區,22379.441956094463,三重區,1792.0,1792.0
50嵐 重新店,3.8,204,冰品飲料店,新北市三重區重新路三段5號,25.0616888,121.4953704,7,109,0,68,16,1,12,2,1,0,三重區,中山里,新北市,三重區,中山里,904.0,734047.0,812.0,444.0,219.0,953.0,1258.35,154.97,三重區,22379.441956094463,三重區,1792.0,1792.0
50嵐 重新店,3.8,204,冰品飲料店,新北市三重區重新路三段5號,25.0616888,121.4953704,7,109,0,68,16,1,12,2,1,0,三重區,中山里,新北市,新店區,中山里,1995.0,2957843.0,1483.0,830.0,323.0,1762.0,2710.11,182.79,三重區,22379.441956094463,三重區,1792.0,1792.0
50嵐 重新店,3.8,204,冰品飲料店,新北市三重區重新路三段5號,25.0616888,121.4953704,7,109,0,68,16,1,12,2,1,0,三重區,中山里,新北市,板橋區,中山里,2148.0,1465513.0,682.0,476.0,224.0,890.0,765.87,112.25,三重區,22379.441956094463,三重區,1792.0,1792.0
50嵐 重新店,3.8,204,冰品飲料店,新北市三重區重新路三段5號,25.0616888,121.4953704,7,109,0,68,16,1,12,2,1,0,三重區,中山里,新北市,樹林區,中山里,1529.0,924449.0,605.0,407.0,213.0,750.0,658.9,108.98,三重區,22379.441956094463,三重區,1792.0,1792.0
50嵐 重新店,3.8,204,冰品飲料店,新北市三重區重新路三段5號,25.0616888,121.4953704,7,109,0,68,16,1,12,2,1,0,三重區,中山里,新北市,中和區,中山里,787.0,570278.0,725.0,486.0,233.0,836.0,966.85,133.43,三重區,22379.441956094463,三重區,1792.0,1792.0
黑丸嫩仙草 三重重新店,4.7,12,冰品飲料店,新北市三重區重新路四段244巷50號,25.0538551,121.4882003,3,44,0,29,14,0,14,2,0,0,三重區,福德里,台北市,士林區,福德里,1484.0,1446889.0,975.0,559.0,225.0,1231.0,1470.55,150.83,三重區,22379.441956094463,三重區,1792.0,1792.0
黑丸嫩仙草 三重重新店,4.7,12,冰品飲料店,新北市三重區重新路四段244巷50號,25.0538551,121.4882003,3,44,0,29,14,0,14,2,0,0,三重區,福德里,新北市,五股區,福德里,1042.0,633787.0,608.0,419.0,209.0,798.0,669.91,110.14,三重區,22379.441956094463,三重區,1792.0,1792.0
黑丸嫩仙草 三重重新店,4.7,12,冰品飲料店,新北市三重區重新路四段244巷50號,25.0538551,121.4882003,3,44,0,29,14,0,14,2,0,0,三重區,福德里,新北市,三重區,福德里,1326.0,966386.0,729.0,439.0,216.0,849.0,999.23,137.11,三重區,22379.441956094463,三重區,1792.0,1792.0
黑丸嫩仙草 三重重新店,4.7,12,冰品飲料店,新北市三重區重新路四段244巷50號,25.0538551,121.4882003,3,44,0,29,14,0,14,2,0,0,三重區,福德里,新北市,新店區,福德里,1241.0,959745.0,773.0,469.0,225.0,919.0,1026.18,132.69,三重區,22379.441956094463,三重區,1792.0,1792.0
黑丸嫩仙草 三重重新店,4.7,12,冰品飲料店,新北市三重區重新路四段244巷50號,25.0538551,121.4882003,3,44,0,29,14,0,14,2,0,0,三重區,福德里,新北市,板橋區,福德里,1535.0,1261302.0,822.0,489.0,225.0,1035.0,1205.36,146.69,三重區,22379.441956094463,三重區,1792.0,1792.0
黑丸嫩仙草 三重重新店,4.7,12,冰品飲料店,新北市三重區重新路四段244巷50號,25.0538551,121.4882003,3,44,0,29,14,0,14,2,0,0,三重區,福德里,新北市,淡水區,福德里,2587.0,2502707.0,967.0,560.0,250.0,1125.0,1587.46,164.09,三重區,22379.441956094463,三重區,1792.0,1792.0
黑丸嫩仙草 三重重新店,4.7,12,冰品飲料店,新北市三重區重新路四段244巷50號,25.0538551,121.4882003,3,44,0,29,14,0,14,2,0,0,三重區,福德里,新北市,汐止區,福德里,1169.0,750448.0,642.0,422.0,203.0,819.0,716.24,111.57,三重區,22379.441956094463,三重區,1792.0,1792.0
黑丸嫩仙草 三重重新店,4.7,12,冰品飲料店,新北市三重區重新路四段244巷50號,25.0538551,121.4882003,3,44,0,29,14,0,14,2,0,0,三重區,福德里,新北市,三芝區,福德里,219.0,137444.0,628.0,357.0,199.0,840.0,895.57,142.7,三重區,22379.441956094463,三重區,1792.0,1792.0
好了啦紅茶冰三重大仁店,2.9,14,冰品飲料店,新北市三重區大仁街58號,25.0650128,121.4921911,7,127,0,92,22,1,9,3,1,0,三重區,重陽里,台北市,南港區,重陽里,2015.0,3315960.0,1646.0,828.0,342.0,2055.0,2598.24,157.89,三重區,22379.441956094463,三重區,1792.0,1792.0
好了啦紅茶冰三重大仁店,2.9,14,冰品飲料店,新北市三重區大仁街58號,25.0650128,121.4921911,7,127,0,92,22,1,9,3,1,0,三重區,重陽里,新北市,三重區,重陽里,999.0,601799.0,602.0,400.0,203.0,763.0,734.42,121.92,三重區,22379.441956094463,三重區,1792.0,1792.0
山頂潑 Mountain Pour,4.9,843,冰品飲料店,新北市三重區捷運路19巷4弄2號,25.05642,121.4850958,4,49,0,43,18,0,11,2,0,0,三重區,重明里,新北市,三重區,重明里,1199.0,1141099.0,952.0,526.0,246.0,1190.0,1345.78,141.41,三重區,22379.441956094463,三重區,1792.0,1792.0
微堂well done 三重店,4.9,165,冰品飲料店,新北市三重區車路頭街176號,25.077,121.4836897,6,53,0,78,28,0,4,2,0,0,三重區,永福里,台北市,士林區,永福里,399.0,1182226.0,2963.0,665.0,265.0,1383.0,17277.98,583.13,三重區,22379.441956094463,三重區,1792.0,1792.0
微堂well done 三重店,4.9,165,冰品飲料店,新北市三重區車路頭街176號,25.077,121.4836897,6,53,0,78,28,0,4,2,0,0,三重區,永福里,新北市,三重區,永福里,1472.0,863870.0,587.0,393.0,191.0,722.0,743.75,126.73,三重區,22379.441956094463,三重區,1792.0,1792.0
微堂well done 三重店,4.9,165,冰品飲料店,新北市三重區車路頭街176號,25.077,121.4836897,6,53,0,78,28,0,4,2,0,0,三重區,永福里,新北市,永和區,永福里,857.0,810960.0,946.0,548.0,279.0,1071.0,1985.94,209.87,三重區,22379.441956094463,三重區,1792.0,1792.0
米茶meetea(三和店),4.3,66,冰品飲料店,新北市三重區三和路二段95號,25.0685116,121.4995745,3,97,0,68,15,1,10,2,1,0,三重區,長生里,新北市,三重區,長生里,244.0,167177.0,685.0,391.0,170.0,845.0,886.45,129.38,三重區,22379.441956094463,三重區,1792.0,1792.0
三和古早味鮮奶茶?MilkTea,5.0,70,冰品飲料店,新北市三重區中央北路74號三和夜市,25.0663508,121.5002456,4,98,0,59,16,1,10,2,1,0,三重區,錦安里,台北市,大安區,錦安里,2107.0,3627441.0,1722.0,875.0,349.0,1956.0,3150.52,183.0,三重區,22379.441956094463,三重區,1792.0,1792.0
三和古早味鮮奶茶?MilkTea,5.0,70,冰品飲料店,新北市三重區中央北路74號三和夜市,25.0663508,121.5002456,4,98,0,59,16,1,10,2,1,0,三重區,錦安里,新北市,三重區,錦安里,504.0,289300.0,574.0,386.0,198.0,739.0,684.26,119.21,三重區,22379.441956094463,三重區,1792.0,1792.0
桃鳳湯,3.8,6,冰品飲料店,新北市三重區三陽路11-1號,25.0588877,121.4860931,7,60,0,54,20,0,10,2,0,0,三重區,光陽里,新北市,三重區,光陽里,2103.0,1650616.0,785.0,484.0,241.0,941.0,1138.76,145.09,三重區,22379.441956094463,三重區,1792.0,1792.0
源陞紅茶,4.7,67,冰品飲料店,新北市三重區車路頭街116號,25.075129,121.4841499,7,60,0,86,22,0,4,2,0,0,三重區,永安里,台北市,中山區,永安里,3436.0,6140030.0,1787.0,841.0,321.0,1979.0,3599.93,201.45,三重區,22379.441956094463,三重區,1792.0,1792.0
源陞紅茶,4.7,67,冰品飲料店,新北市三重區車路頭街116號,25.075129,121.4841499,7,60,0,86,22,0,4,2,0,0,三重區,永安里,新北市,蘆洲區,永安里,1524.0,896055.0,588.0,395.0,214.0,742.0,637.21,108.38,三重區,22379.441956094463,三重區,1792.0,1792.0
源陞紅茶,4.7,67,冰品飲料店,新北市三重區車路頭街116號,25.075129,121.4841499,7,60,0,86,22,0,4,2,0,0,三重區,永安里,新北市,三重區,永安里,1134.0,739154.0,652.0,423.0,198.0,838.0,744.69,114.25,三重區,22379.441956094463,三重區,1792.0,1792.0
源陞紅茶,4.7,67,冰品飲料店,新北市三重區車路頭街116號,25.075129,121.4841499,7,60,0,86,22,0,4,2,0,0,三重區,永安里,新北市,新店區,永安里,1571.0,973859.0,620.0,416.0,208.0,781.0,706.51,113.97,三重區,22379.441956094463,三重區,1792.0,1792.0
源陞紅茶,4.7,67,冰品飲料店,新北市三重區車路頭街116號,25.075129,121.4841499,7,60,0,86,22,0,4,2,0,0,三重區,永安里,新北市,石碇區,永安里,207.0,104736.0,506.0,320.0,188.0,549.0,556.72,110.03,三重區,22379.441956094463,三重區,1792.0,1792.0
源陞紅茶,4.7,67,冰品飲料店,新北市三重區車路頭街116號,25.075129,121.4841499,7,60,0,86,22,0,4,2,0,0,三重區,永安里,新北市,板橋區,永安里,1042.0,866392.0,831.0,485.0,226.0,991.0,1090.69,131.18,三重區,22379.441956094463,三重區,1792.0,1792.0
源陞紅茶,4.7,67,冰品飲料店,新北市三重區車路頭街116號,25.075129,121.4841499,7,60,0,86,22,0,4,2,0,0,三重區,永安里,新北市,永和區,永安里,1422.0,1503766.0,1058.0,599.0,257.0,1241.0,2191.24,207.21,三重區,22379.441956094463,三重區,1792.0,1792.0
CoCo都可 三重中正北店,4.2,206,冰品飲料店,新北市三重區中正北路362號,25.0694624,121.4771702,7,31,0,52,21,0,13,0,0,0,三重區,大有里,台北市,大同區,大有里,1511.0,1357902.0,899.0,508.0,221.0,1042.0,1353.36,150.59,三重區,22379.441956094463,三重區,1792.0,1792.0
CoCo都可 三重中正北店,4.2,206,冰品飲料店,新北市三重區中正北路362號,25.0694624,121.4771702,7,31,0,52,21,0,13,0,0,0,三重區,大有里,新北市,三重區,大有里,1727.0,1078440.0,624.0,423.0,215.0,776.0,787.1,126.05,三重區,22379.441956094463,三重區,1792.0,1792.0
COMEBUY_三重自強,4.0,28,冰品飲料店,新北市三重區自強路三段17號,25.0722645,121.4870682,8,76,0,97,22,0,3,2,0,0,三重區,永德里,新北市,蘆洲區,永德里,1332.0,776381.0,583.0,406.0,212.0,726.0,739.14,126.81,三重區,22379.441956094463,三重區,1792.0,1792.0
COMEBUY_三重自強,4.0,28,冰品飲料店,新北市三重區自強路三段17號,25.0722645,121.4870682,8,76,0,97,22,0,3,2,0,0,三重區,永德里,新北市,三重區,永德里,1321.0,762118.0,577.0,396.0,185.0,712.0,683.16,118.41,三重區,22379.441956094463,三重區,1792.0,1792.0
水月手工冰棒,4.7,143,冰品飲料店,新北市三重區力行路一段179巷8-2號,25.0700447,121.4848481,11,62,0,85,21,0,3,1,0,0,三重區,立德里,新北市,新莊區,立德里,817.0,613464.0,751.0,456.0,206.0,936.0,1011.67,134.73,三重區,22379.441956094463,三重區,1792.0,1792.0
水月手工冰棒,4.7,143,冰品飲料店,新北市三重區力行路一段179巷8-2號,25.0700447,121.4848481,11,62,0,85,21,0,3,1,0,0,三重區,立德里,新北市,三重區,立德里,999.0,644792.0,645.0,381.0,186.0,750.0,1297.83,201.08,三重區,22379.441956094463,三重區,1792.0,1792.0
龜記茗品 正義北店,4.2,206,冰品飲料店,新北市三重區正義北路12號,25.0628279,121.4975392,7,101,0,58,15,1,12,3,1,0,三重區,文化里,台北市,北投區,文化里,1358.0,1239204.0,913.0,569.0,248.0,1186.0,1073.63,117.66,三重區,22379.441956094463,三重區,1792.0,1792.0
龜記茗品 正義北店,4.2,206,冰品飲料店,新北市三重區正義北路12號,25.0628279,121.4975392,7,101,0,58,15,1,12,3,1,0,三重區,文化里,新北市,三重區,文化里,651.0,425392.0,653.0,371.0,203.0,757.0,969.86,148.42,三重區,22379.441956094463,三重區,1792.0,1792.0
龜記茗品 正義北店,4.2,206,冰品飲料店,新北市三重區正義北路12號,25.0628279,121.4975392,7,101,0,58,15,1,12,3,1,0,三重區,文化里,新北市,板橋區,文化里,1060.0,987633.0,932.0,482.0,228.0,1069.0,1268.9,136.19,三重區,22379.441956094463,三重區,1792.0,1792.0
龜記茗品 正義北店,4.2,206,冰品飲料店,新北市三重區正義北路12號,25.0628279,121.4975392,7,101,0,58,15,1,12,3,1,0,三重區,文化里,新北市,淡水區,文化里,538.0,350510.0,652.0,427.0,187.0,847.0,783.5,120.26,三重區,22379.441956094463,三重區,1792.0,1792.0
龜記茗品 正義北店,4.2,206,冰品飲料店,新北市三重區正義北路12號,25.0628279,121.4975392,7,101,0,58,15,1,12,3,1,0,三重區,文化里,新北市,汐止區,文化里,1657.0,1428700.0,862.0,519.0,238.0,1096.0,1034.83,120.02,三重區,22379.441956094463,三重區,1792.0,1792.0
龜記茗品 正義北店,4.2,206,冰品飲料店,新北市三重區正義北路12號,25.0628279,121.4975392,7,101,0,58,15,1,12,3,1,0,三重區,文化里,新北市,永和區,文化里,868.0,787345.0,907.0,486.0,231.0,1074.0,1489.19,164.17,三重區,22379.441956094463,三重區,1792.0,1792.0
李記紅茶冰-三重文化北店,4.2,38,冰品飲料店,新北市三重區文化北路33-7號,25.0646671,121.4992314,6,105,0,65,14,1,12,3,1,0,三重區,錦通里,新北市,三重區,錦通里,379.0,200844.0,530.0,355.0,163.0,655.0,627.03,118.32,三重區,22379.441956094463,三重區,1792.0,1792.0
冬瓜幫,4.5,53,冰品飲料店,新北市三重區公園街17號,25.0729409,121.4991904,4,75,0,67,18,0,4,1,0,0,三重區,龍門里,台北市,大安區,龍門里,1532.0,2715569.0,1773.0,897.0,359.0,2028.0,3403.47,192.01,三重區,22379.441956094463,三重區,1792.0,1792.0
冬瓜幫,4.5,53,冰品飲料店,新北市三重區公園街17號,25.0729409,121.4991904,4,75,0,67,18,0,4,1,0,0,三重區,龍門里,新北市,三重區,龍門里,518.0,327494.0,632.0,399.0,187.0,776.0,768.78,121.6,三重區,22379.441956094463,三重區,1792.0,1792.0
冬瓜幫,4.5,53,冰品飲料店,新北市三重區公園街17號,25.0729409,121.4991904,4,75,0,67,18,0,4,1,0,0,三重區,龍門里,新北市,貢寮區,龍門里,125.0,64343.0,515.0,370.0,188.0,655.0,524.66,101.93,三重區,22379.441956094463,三重區,1792.0,1792.0
紅茶洋行-三重三和店,3.8,13,冰品飲料店,新北市三重區三和路四段7號,25.0741898,121.4914861,5,79,0,92,25,0,2,2,0,0,三重區,維德里,新北市,三重區,維德里,812.0,487303.0,600.0,399.0,209.0,747.0,662.56,110.4,三重區,22379.441956094463,三重區,1792.0,1792.0
天一青草茶,4.5,110,冰品飲料店,新北市三重區自強路一段29號,25.0678291,121.4981957,6,100,0,75,18,1,10,2,1,0,三重區,中央里,台北市,中山區,中央里,1322.0,1464163.0,1108.0,590.0,235.0,1390.0,1722.42,155.52,三重區,22379.441956094463,三重區,1792.0,1792.0
天一青草茶,4.5,110,冰品飲料店,新北市三重區自強路一段29號,25.0678291,121.4981957,6,100,0,75,18,1,10,2,1,0,三重區,中央里,台北市,北投區,中央里,2737.0,2606150.0,952.0,516.0,242.0,1084.0,1445.96,151.86,三重區,22379.441956094463,三重區,1792.0,1792.0
天一青草茶,4.5,110,冰品飲料店,新北市三重區自強路一段29號,25.0678291,121.4981957,6,100,0,75,18,1,10,2,1,0,三重區,中央里,新北市,三重區,中央里,474.0,317093.0,669.0,420.0,225.0,819.0,1119.14,167.29,三重區,22379.441956094463,三重區,1792.0,1792.0
天一青草茶,4.5,110,冰品飲料店,新北市三重區自強路一段29號,25.0678291,121.4981957,6,100,0,75,18,1,10,2,1,0,三重區,中央里,新北市,新店區,中央里,2252.0,3022661.0,1342.0,714.0,289.0,1657.0,1873.68,139.6,三重區,22379.441956094463,三重區,1792.0,1792.0
COMEBUY力行店,3.6,146,冰品飲料店,新北市三重區車路頭街167號,25.0775085,121.4837213,6,54,0,80,28,0,4,2,0,0,三重區,永福里,台北市,士林區,永福里,399.0,1182226.0,2963.0,665.0,265.0,1383.0,17277.98,583.13,三重區,22379.441956094463,三重區,1792.0,1792.0
COMEBUY力行店,3.6,146,冰品飲料店,新北市三重區車路頭街167號,25.0775085,121.4837213,6,54,0,80,28,0,4,2,0,0,三重區,永福里,新北市,三重區,永福里,1472.0,863870.0,587.0,393.0,191.0,722.0,743.75,126.73,三重區,22379.441956094463,三重區,1792.0,1792.0
COMEBUY力行店,3.6,146,冰品飲料店,新北市三重區車路頭街167號,25.0775085,121.4837213,6,54,0,80,28,0,4,2,0,0,三重區,永福里,新北市,永和區,永福里,857.0,810960.0,946.0,548.0,279.0,1071.0,1985.94,209.87,三重區,22379.441956094463,三重區,1792.0,1792.0
虎您嘎飲 回甘茶品手搖飲 現炸手?饅頭 手炒黑糖,4.6,32,冰品飲料店,新北市中寮街31號中段右側 1樓,25.0588751,121.49254,6,90,0,58,16,0,15,2,1,0,三重區,中正里,台北市,松山區,中正里,3425.0,5369060.0,1568.0,842.0,344.0,1900.0,2415.98,154.12,三重區,22379.441956094463,三重區,1792.0,1792.0
虎您嘎飲 回甘茶品手搖飲 現炸手?饅頭 手炒黑糖,4.6,32,冰品飲料店,新北市中寮街31號中段右側 1樓,25.0588751,121.49254,6,90,0,58,16,0,15,2,1,0,三重區,中正里,新北市,三重區,中正里,383.0,237977.0,621.0,423.0,211.0,760.0,777.58,125.14,三重區,22379.441956094463,三重區,1792.0,1792.0
虎您嘎飲 回甘茶品手搖飲 現炸手?饅頭 手炒黑糖,4.6,32,冰品飲料店,新北市中寮街31號中段右側 1樓,25.0588751,121.49254,6,90,0,58,16,0,15,2,1,0,三重區,中正里,新北市,新店區,中正里,1987.0,1760949.0,886.0,542.0,256.0,1066.0,1167.38,131.72,三重區,22379.441956094463,三重區,1792.0,1792.0
虎您嘎飲 回甘茶品手搖飲 現炸手?饅頭 手炒黑糖,4.6,32,冰品飲料店,新北市中寮街31號中段右側 1樓,25.0588751,121.49254,6,90,0,58,16,0,15,2,1,0,三重區,中正里,新北市,板橋區,中正里,2114.0,1795601.0,849.0,586.0,288.0,1130.0,907.94,106.89,三重區,22379.441956094463,三重區,1792.0,1792.0
虎您嘎飲 回甘茶品手搖飲 現炸手?饅頭 手炒黑糖,4.6,32,冰品飲料店,新北市中寮街31號中段右側 1樓,25.0588751,121.49254,6,90,0,58,16,0,15,2,1,0,三重區,中正里,新北市,三峽區,中正里,1309.0,686956.0,525.0,363.0,196.0,682.0,545.46,103.94,三重區,22379.441956094463,三重區,1792.0,1792.0
虎您嘎飲 回甘茶品手搖飲 現炸手?饅頭 手炒黑糖,4.6,32,冰品飲料店,新北市中寮街31號中段右側 1樓,25.0588751,121.49254,6,90,0,58,16,0,15,2,1,0,三重區,中正里,新北市,中和區,中正里,1079.0,658102.0,610.0,403.0,206.0,781.0,736.57,120.77,三重區,22379.441956094463,三重區,1792.0,1792.0
虎您嘎飲 回甘茶品手搖飲 現炸手?饅頭 手炒黑糖,4.6,32,冰品飲料店,新北市中寮街31號中段右側 1樓,25.0588751,121.49254,6,90,0,58,16,0,15,2,1,0,三重區,中正里,新北市,土城區,中正里,1027.0,692695.0,674.0,431.0,205.0,871.0,794.81,117.84,三重區,22379.441956094463,三重區,1792.0,1792.0
紅茶洋行 三重永福店,4.8,20,冰品飲料店,新北市三重區永福街175-1號,25.0754942,121.4787742,5,55,0,79,19,0,4,2,0,0,三重區,永順里,新北市,三重區,永順里,1402.0,775618.0,553.0,372.0,187.0,673.0,666.84,120.54,三重區,22379.441956094463,三重區,1792.0,1792.0
一手私藏世界紅茶 三重三和店,4.2,153,冰品飲料店,新北市三重區三和路二段16-1號,25.067202,121.500655,4,97,0,60,14,1,10,2,1,0,三重區,長元里,新北市,三重區,長元里,654.0,364443.0,557.0,383.0,190.0,675.0,623.38,111.87,三重區,22379.441956094463,三重區,1792.0,1792.0
清心福全三重大同北店-珍珠奶茶手搖飲料專賣店,3.5,64,冰品飲料店,新北市三重區大同北路53號,25.0632336,121.495293,6,110,0,74,17,1,12,3,1,0,三重區,中山里,台北市,中山區,中山里,2575.0,2442984.0,949.0,522.0,226.0,1073.0,1585.24,167.09,三重區,22379.441956094463,三重區,1792.0,1792.0
清心福全三重大同北店-珍珠奶茶手搖飲料專賣店,3.5,64,冰品飲料店,新北市三重區大同北路53號,25.0632336,121.495293,6,110,0,74,17,1,12,3,1,0,三重區,中山里,新北市,三重區,中山里,904.0,734047.0,812.0,444.0,219.0,953.0,1258.35,154.97,三重區,22379.441956094463,三重區,1792.0,1792.0
清心福全三重大同北店-珍珠奶茶手搖飲料專賣店,3.5,64,冰品飲料店,新北市三重區大同北路53號,25.0632336,121.495293,6,110,0,74,17,1,12,3,1,0,三重區,中山里,新北市,新店區,中山里,1995.0,2957843.0,1483.0,830.0,323.0,1762.0,2710.11,182.79,三重區,22379.441956094463,三重區,1792.0,1792.0
清心福全三重大同北店-珍珠奶茶手搖飲料專賣店,3.5,64,冰品飲料店,新北市三重區大同北路53號,25.0632336,121.495293,6,110,0,74,17,1,12,3,1,0,三重區,中山里,新北市,板橋區,中山里,2148.0,1465513.0,682.0,476.0,224.0,890.0,765.87,112.25,三重區,22379.441956094463,三重區,1792.0,1792.0
清心福全三重大同北店-珍珠奶茶手搖飲料專賣店,3.5,64,冰品飲料店,新北市三重區大同北路53號,25.0632336,121.495293,6,110,0,74,17,1,12,3,1,0,三重區,中山里,新北市,樹林區,中山里,1529.0,924449.0,605.0,407.0,213.0,750.0,658.9,108.98,三重區,22379.441956094463,三重區,1792.0,1792.0
清心福全三重大同北店-珍珠奶茶手搖飲料專賣店,3.5,64,冰品飲料店,新北市三重區大同北路53號,25.0632336,121.495293,6,110,0,74,17,1,12,3,1,0,三重區,中山里,新北市,中和區,中山里,787.0,570278.0,725.0,486.0,233.0,836.0,966.85,133.43,三重區,22379.441956094463,三重區,1792.0,1792.0
米家冰品,4.3,192,冰品飲料店,新北市三重區正義北路278－1號,25.0690833,121.4956628,7,106,0,83,18,1,10,2,1,0,三重區,安慶里,新北市,三重區,安慶里,593.0,305414.0,515.0,361.0,166.0,641.0,629.87,122.3,三重區,22379.441956094463,三重區,1792.0,1792.0
清心福全三重集美店-珍珠奶茶手搖飲料專賣店,3.8,89,珍珠奶茶,新北市三重區集美街136號,25.0532024,121.489421,3,43,0,28,13,0,13,2,0,0,三重區,光明里,台北市,大安區,光明里,1322.0,2282463.0,1727.0,924.0,351.0,2042.0,3743.82,216.84,三重區,22379.441956094463,三重區,1792.0,1792.0
清心福全三重集美店-珍珠奶茶手搖飲料專賣店,3.8,89,珍珠奶茶,新北市三重區集美街136號,25.0532024,121.489421,3,43,0,28,13,0,13,2,0,0,三重區,光明里,新北市,新莊區,光明里,1431.0,863992.0,604.0,413.0,215.0,759.0,648.21,107.36,三重區,22379.441956094463,三重區,1792.0,1792.0
清心福全三重集美店-珍珠奶茶手搖飲料專賣店,3.8,89,珍珠奶茶,新北市三重區集美街136號,25.0532024,121.489421,3,43,0,28,13,0,13,2,0,0,三重區,光明里,新北市,蘆洲區,光明里,1369.0,921086.0,673.0,446.0,229.0,847.0,765.77,113.82,三重區,22379.441956094463,三重區,1792.0,1792.0
清心福全三重集美店-珍珠奶茶手搖飲料專賣店,3.8,89,珍珠奶茶,新北市三重區集美街136號,25.0532024,121.489421,3,43,0,28,13,0,13,2,0,0,三重區,光明里,新北市,三重區,光明里,2415.0,1973683.0,817.0,484.0,226.0,942.0,1122.91,137.4,三重區,22379.441956094463,三重區,1792.0,1792.0
清心福全三重集美店-珍珠奶茶手搖飲料專賣店,3.8,89,珍珠奶茶,新北市三重區集美街136號,25.0532024,121.489421,3,43,0,28,13,0,13,2,0,0,三重區,光明里,新北市,石碇區,光明里,54.0,36456.0,675.0,369.0,161.0,610.0,1020.11,151.1,三重區,22379.441956094463,三重區,1792.0,1792.0
清心福全三重集美店-珍珠奶茶手搖飲料專賣店,3.8,89,珍珠奶茶,新北市三重區集美街136號,25.0532024,121.489421,3,43,0,28,13,0,13,2,0,0,三重區,光明里,新北市,永和區,光明里,1001.0,884853.0,884.0,579.0,238.0,1110.0,1042.9,117.98,三重區,22379.441956094463,三重區,1792.0,1792.0
清水糖,4.3,322,冰品飲料店,新北市三重區文化北路31之1號,25.0640766,121.4994638,5,102,0,57,13,1,11,3,1,0,三重區,錦通里,新北市,三重區,錦通里,379.0,200844.0,530.0,355.0,163.0,655.0,627.03,118.32,三重區,22379.441956094463,三重區,1792.0,1792.0
泡泡茶冷熱飲雞排專賣店,4.6,23,冰品飲料店,新北市三重區介壽路39巷78號,25.0704251,121.5004625,3,85,0,63,13,1,6,2,0,0,三重區,介壽里,台北市,松山區,介壽里,1457.0,1989194.0,1365.0,762.0,279.0,1574.0,2176.72,159.44,三重區,22379.441956094463,三重區,1792.0,1792.0
泡泡茶冷熱飲雞排專賣店,4.6,23,冰品飲料店,新北市三重區介壽路39巷78號,25.0704251,121.5004625,3,85,0,63,13,1,6,2,0,0,三重區,介壽里,新北市,三重區,介壽里,334.0,201753.0,604.0,385.0,173.0,676.0,738.9,122.32,三重區,22379.441956094463,三重區,1792.0,1792.0
泡泡茶冷熱飲雞排專賣店,4.6,23,冰品飲料店,新北市三重區介壽路39巷78號,25.0704251,121.5004625,3,85,0,63,13,1,6,2,0,0,三重區,介壽里,新北市,板橋區,介壽里,880.0,646016.0,734.0,460.0,222.0,989.0,814.97,111.01,三重區,22379.441956094463,三重區,1792.0,1792.0
泡泡茶冷熱飲雞排專賣店,4.6,23,冰品飲料店,新北市三重區介壽路39巷78號,25.0704251,121.5004625,3,85,0,63,13,1,6,2,0,0,三重區,介壽里,新北市,三峽區,介壽里,1717.0,866095.0,504.0,361.0,188.0,633.0,741.9,147.08,三重區,22379.441956094463,三重區,1792.0,1792.0
林心堂青草茶,0.0,0,冰品飲料店,新北市三重區大仁街35號1樓,25.0653046,121.492922,7,126,0,90,21,1,9,3,1,0,三重區,大園里,新北市,三重區,大園里,793.0,631478.0,796.0,421.0,201.0,878.0,1668.71,209.55,三重區,22379.441956094463,三重區,1792.0,1792.0
清心福全三重力行店-珍珠奶茶手搖飲料專賣店,4.1,93,冰品飲料店,新北市三重區力行路二段119號,25.0764585,121.4829458,6,62,0,77,26,0,4,2,0,0,三重區,永福里,台北市,士林區,永福里,399.0,1182226.0,2963.0,665.0,265.0,1383.0,17277.98,583.13,三重區,22379.441956094463,三重區,1792.0,1792.0
清心福全三重力行店-珍珠奶茶手搖飲料專賣店,4.1,93,冰品飲料店,新北市三重區力行路二段119號,25.0764585,121.4829458,6,62,0,77,26,0,4,2,0,0,三重區,永福里,新北市,三重區,永福里,1472.0,863870.0,587.0,393.0,191.0,722.0,743.75,126.73,三重區,22379.441956094463,三重區,1792.0,1792.0
清心福全三重力行店-珍珠奶茶手搖飲料專賣店,4.1,93,冰品飲料店,新北市三重區力行路二段119號,25.0764585,121.4829458,6,62,0,77,26,0,4,2,0,0,三重區,永福里,新北市,永和區,永福里,857.0,810960.0,946.0,548.0,279.0,1071.0,1985.94,209.87,三重區,22379.441956094463,三重區,1792.0,1792.0
50嵐 正義店,3.7,243,冰品飲料店,新北市三重區正義北路251號,25.0696346,121.4958072,7,103,0,82,19,1,9,2,1,0,三重區,三安里,新北市,三重區,三安里,765.0,472367.0,617.0,395.0,181.0,751.0,862.91,139.75,三重區,22379.441956094463,三重區,1792.0,1792.0
順星站,4.5,19,冰品飲料店,新北市三重區三和路四段20巷124號,25.0730151,121.4881036,7,80,0,92,20,0,3,2,0,0,三重區,永德里,新北市,蘆洲區,永德里,1332.0,776381.0,583.0,406.0,212.0,726.0,739.14,126.81,三重區,22379.441956094463,三重區,1792.0,1792.0
順星站,4.5,19,冰品飲料店,新北市三重區三和路四段20巷124號,25.0730151,121.4881036,7,80,0,92,20,0,3,2,0,0,三重區,永德里,新北市,三重區,永德里,1321.0,762118.0,577.0,396.0,185.0,712.0,683.16,118.41,三重區,22379.441956094463,三重區,1792.0,1792.0
50嵐三重文化店,3.5,177,冰品飲料店,新北市三重區文化北路61-3號,25.0664063,121.4986898,5,101,0,73,16,1,12,2,1,0,三重區,錦安里,台北市,大安區,錦安里,2107.0,3627441.0,1722.0,875.0,349.0,1956.0,3150.52,183.0,三重區,22379.441956094463,三重區,1792.0,1792.0
50嵐三重文化店,3.5,177,冰品飲料店,新北市三重區文化北路61-3號,25.0664063,121.4986898,5,101,0,73,16,1,12,2,1,0,三重區,錦安里,新北市,三重區,錦安里,504.0,289300.0,574.0,386.0,198.0,739.0,684.26,119.21,三重區,22379.441956094463,三重區,1792.0,1792.0
可可亞.楊桃汁,4.7,18,冰品飲料店,新北市三重區正義北路2巷,25.0624858,121.4977638,7,100,0,57,15,1,12,3,1,0,三重區,重新里,新北市,三重區,重新里,470.0,292717.0,623.0,418.0,192.0,752.0,733.97,117.85,三重區,22379.441956094463,三重區,1792.0,1792.0
老賴茶棧新北三重店,4.0,94,冰品飲料店,新北市三重區五華街110之1號,25.082865,121.4922853,5,27,0,71,25,0,2,1,0,0,三重區,五華里,新北市,三重區,五華里,1623.0,1470574.0,906.0,479.0,243.0,1049.0,1300.19,143.5,三重區,22379.441956094463,三重區,1792.0,1792.0
"馥御私房手作茶,牛奶,羊奶,奶蓋專賣,黑糖珍珠奶茶、鮮奶茶專賣店,手搖飲,OATLY燕麥奶,焦糖布蕾奶蓋,預約外送,開放加盟中",4.9,1,冰品飲料店,新北市三重區中央北路26號,25.0642994,121.5005795,5,100,0,50,13,1,11,2,1,0,三重區,錦通里,新北市,三重區,錦通里,379.0,200844.0,530.0,355.0,163.0,655.0,627.03,118.32,三重區,22379.441956094463,三重區,1792.0,1792.0
101飲料專賣店,3.0,14,冰品飲料店,新北市三重區自強路五段,25.080065,121.4918066,7,47,0,92,26,0,2,1,0,0,三重區,溪美里,新北市,三重區,溪美里,2657.0,1858483.0,699.0,438.0,218.0,892.0,811.46,116.01,三重區,22379.441956094463,三重區,1792.0,1792.0
趙平米苔目黑糖剉冰,4.4,93,冰品飲料店,新北市三重區大同北路184巷12號,25.0654137,121.4914903,6,125,0,97,22,1,8,3,1,0,三重區,重陽里,台北市,南港區,重陽里,2015.0,3315960.0,1646.0,828.0,342.0,2055.0,2598.24,157.89,三重區,22379.441956094463,三重區,1792.0,1792.0
趙平米苔目黑糖剉冰,4.4,93,冰品飲料店,新北市三重區大同北路184巷12號,25.0654137,121.4914903,6,125,0,97,22,1,8,3,1,0,三重區,重陽里,新北市,三重區,重陽里,999.0,601799.0,602.0,400.0,203.0,763.0,734.42,121.92,三重區,22379.441956094463,三重區,1792.0,1792.0
杯杯樂【綠豆沙】專賣店,4.8,81,冰品飲料店,新北市三重區文化北路22-2號,25.0642503,121.4992035,6,103,0,61,13,1,11,3,1,0,三重區,文化里,台北市,北投區,文化里,1358.0,1239204.0,913.0,569.0,248.0,1186.0,1073.63,117.66,三重區,22379.441956094463,三重區,1792.0,1792.0
杯杯樂【綠豆沙】專賣店,4.8,81,冰品飲料店,新北市三重區文化北路22-2號,25.0642503,121.4992035,6,103,0,61,13,1,11,3,1,0,三重區,文化里,新北市,三重區,文化里,651.0,425392.0,653.0,371.0,203.0,757.0,969.86,148.42,三重區,22379.441956094463,三重區,1792.0,1792.0
杯杯樂【綠豆沙】專賣店,4.8,81,冰品飲料店,新北市三重區文化北路22-2號,25.0642503,121.4992035,6,103,0,61,13,1,11,3,1,0,三重區,文化里,新北市,板橋區,文化里,1060.0,987633.0,932.0,482.0,228.0,1069.0,1268.9,136.19,三重區,22379.441956094463,三重區,1792.0,1792.0
杯杯樂【綠豆沙】專賣店,4.8,81,冰品飲料店,新北市三重區文化北路22-2號,25.0642503,121.4992035,6,103,0,61,13,1,11,3,1,0,三重區,文化里,新北市,淡水區,文化里,538.0,350510.0,652.0,427.0,187.0,847.0,783.5,120.26,三重區,22379.441956094463,三重區,1792.0,1792.0
杯杯樂【綠豆沙】專賣店,4.8,81,冰品飲料店,新北市三重區文化北路22-2號,25.0642503,121.4992035,6,103,0,61,13,1,11,3,1,0,三重區,文化里,新北市,汐止區,文化里,1657.0,1428700.0,862.0,519.0,238.0,1096.0,1034.83,120.02,三重區,22379.441956094463,三重區,1792.0,1792.0
杯杯樂【綠豆沙】專賣店,4.8,81,冰品飲料店,新北市三重區文化北路22-2號,25.0642503,121.4992035,6,103,0,61,13,1,11,3,1,0,三重區,文化里,新北市,永和區,文化里,868.0,787345.0,907.0,486.0,231.0,1074.0,1489.19,164.17,三重區,22379.441956094463,三重區,1792.0,1792.0
迷客夏Milksha 新北三和店,3.3,332,冰品飲料店,新北市三重區三和路三段18號,25.070236,121.4967069,6,101,0,77,19,1,8,2,1,0,三重區,三安里,新北市,三重區,三安里,765.0,472367.0,617.0,395.0,181.0,751.0,862.91,139.75,三重區,22379.441956094463,三重區,1792.0,1792.0
鮮茶道（三重福隆店）,4.1,74,冰品飲料店,新北市三重區福隆路36號1樓,25.0784022,121.4921607,5,53,0,89,25,0,1,2,0,0,三重區,溪美里,新北市,三重區,溪美里,2657.0,1858483.0,699.0,438.0,218.0,892.0,811.46,116.01,三重區,22379.441956094463,三重區,1792.0,1792.0
得正#三重徐匯計劃,3.5,189,冰品飲料店,新北市三重區三和路四段209號,25.0795948,121.4817669,6,66,0,80,30,0,3,2,0,0,三重區,仁華里,新北市,三重區,仁華里,1289.0,888336.0,689.0,452.0,220.0,906.0,765.99,111.15,三重區,22379.441956094463,三重區,1792.0,1792.0
五桐號WooTea 新北三重文化北店,3.0,227,冰品飲料店,新北市三重區文化北路20號,25.0641062,121.4991621,6,103,0,59,13,1,11,3,1,0,三重區,文化里,台北市,北投區,文化里,1358.0,1239204.0,913.0,569.0,248.0,1186.0,1073.63,117.66,三重區,22379.441956094463,三重區,1792.0,1792.0
五桐號WooTea 新北三重文化北店,3.0,227,冰品飲料店,新北市三重區文化北路20號,25.0641062,121.4991621,6,103,0,59,13,1,11,3,1,0,三重區,文化里,新北市,三重區,文化里,651.0,425392.0,653.0,371.0,203.0,757.0,969.86,148.42,三重區,22379.441956094463,三重區,1792.0,1792.0
五桐號WooTea 新北三重文化北店,3.0,227,冰品飲料店,新北市三重區文化北路20號,25.0641062,121.4991621,6,103,0,59,13,1,11,3,1,0,三重區,文化里,新北市,板橋區,文化里,1060.0,987633.0,932.0,482.0,228.0,1069.0,1268.9,136.19,三重區,22379.441956094463,三重區,1792.0,1792.0
五桐號WooTea 新北三重文化北店,3.0,227,冰品飲料店,新北市三重區文化北路20號,25.0641062,121.4991621,6,103,0,59,13,1,11,3,1,0,三重區,文化里,新北市,淡水區,文化里,538.0,350510.0,652.0,427.0,187.0,847.0,783.5,120.26,三重區,22379.441956094463,三重區,1792.0,1792.0
五桐號WooTea 新北三重文化北店,3.0,227,冰品飲料店,新北市三重區文化北路20號,25.0641062,121.4991621,6,103,0,59,13,1,11,3,1,0,三重區,文化里,新北市,汐止區,文化里,1657.0,1428700.0,862.0,519.0,238.0,1096.0,1034.83,120.02,三重區,22379.441956094463,三重區,1792.0,1792.0
五桐號WooTea 新北三重文化北店,3.0,227,冰品飲料店,新北市三重區文化北路20號,25.0641062,121.4991621,6,103,0,59,13,1,11,3,1,0,三重區,文化里,新北市,永和區,文化里,868.0,787345.0,907.0,486.0,231.0,1074.0,1489.19,164.17,三重區,22379.441956094463,三重區,1792.0,1792.0
白巷子三重三和店,3.2,149,冰品飲料店,新北市三重區三和路四段229號,25.0798545,121.4812848,6,76,0,86,28,0,3,2,0,0,三重區,慈愛里,新北市,三重區,慈愛里,897.0,490598.0,547.0,363.0,189.0,677.0,660.46,120.76,三重區,22379.441956094463,三重區,1792.0,1792.0
零度甜 冰品/豆花/甜湯,4.1,279,冰品飲料店,新北市三重區仁愛街20號,25.0711965,121.4965687,6,100,0,83,20,1,5,2,0,0,三重區,奕壽里,新北市,三重區,奕壽里,518.0,342896.0,662.0,430.0,218.0,807.0,730.21,110.31,三重區,22379.441956094463,三重區,1792.0,1792.0
康青龍 三重台北橋店,3.1,95,冰品飲料店,新北市三重區重新路一段106號,25.0632105,121.5009429,5,94,0,46,11,1,9,2,1,0,三重區,福星里,台北市,萬華區,福星里,1627.0,1351529.0,831.0,449.0,191.0,969.0,1379.53,166.07,三重區,22379.441956094463,三重區,1792.0,1792.0
康青龍 三重台北橋店,3.1,95,冰品飲料店,新北市三重區重新路一段106號,25.0632105,121.5009429,5,94,0,46,11,1,9,2,1,0,三重區,福星里,新北市,三重區,福星里,387.0,300227.0,776.0,484.0,237.0,992.0,916.06,118.08,三重區,22379.441956094463,三重區,1792.0,1792.0
康青龍 三重台北橋店,3.1,95,冰品飲料店,新北市三重區重新路一段106號,25.0632105,121.5009429,5,94,0,46,11,1,9,2,1,0,三重區,福星里,新北市,板橋區,福星里,1143.0,1021389.0,894.0,540.0,248.0,1126.0,1087.7,121.72,三重區,22379.441956094463,三重區,1792.0,1792.0
喉饑果汁-現打果汁專賣店,4.3,3,冰品飲料店,新北市三重區重陽路三段5巷13號,25.065237,121.491052,6,124,0,96,22,0,8,3,1,0,三重區,重陽里,台北市,南港區,重陽里,2015.0,3315960.0,1646.0,828.0,342.0,2055.0,2598.24,157.89,三重區,22379.441956094463,三重區,1792.0,1792.0
喉饑果汁-現打果汁專賣店,4.3,3,冰品飲料店,新北市三重區重陽路三段5巷13號,25.065237,121.491052,6,124,0,96,22,0,8,3,1,0,三重區,重陽里,新北市,三重區,重陽里,999.0,601799.0,602.0,400.0,203.0,763.0,734.42,121.92,三重區,22379.441956094463,三重區,1792.0,1792.0
KING KONG金剛咖啡茶飲,4.6,125,冰品飲料店,新北市三重區大同南路160號,25.0576245,121.4965488,5,76,0,43,12,1,17,2,1,0,三重區,仁義里,新北市,新莊區,仁義里,1013.0,593466.0,586.0,355.0,181.0,710.0,861.33,147.02,三重區,22379.441956094463,三重區,1792.0,1792.0
KING KONG金剛咖啡茶飲,4.6,125,冰品飲料店,新北市三重區大同南路160號,25.0576245,121.4965488,5,76,0,43,12,1,17,2,1,0,三重區,仁義里,新北市,蘆洲區,仁義里,1305.0,1035057.0,793.0,470.0,218.0,918.0,1060.16,133.66,三重區,22379.441956094463,三重區,1792.0,1792.0
KING KONG金剛咖啡茶飲,4.6,125,冰品飲料店,新北市三重區大同南路160號,25.0576245,121.4965488,5,76,0,43,12,1,17,2,1,0,三重區,仁義里,新北市,三重區,仁義里,410.0,280603.0,684.0,366.0,203.0,762.0,1041.22,152.14,三重區,22379.441956094463,三重區,1792.0,1792.0
COMEBUY_三重文化店,3.6,67,冰品飲料店,新北市三重區文化北路156號,25.0673587,121.4981492,6,99,0,76,17,1,12,2,1,0,三重區,中央里,台北市,中山區,中央里,1322.0,1464163.0,1108.0,590.0,235.0,1390.0,1722.42,155.52,三重區,22379.441956094463,三重區,1792.0,1792.0
COMEBUY_三重文化店,3.6,67,冰品飲料店,新北市三重區文化北路156號,25.0673587,121.4981492,6,99,0,76,17,1,12,2,1,0,三重區,中央里,台北市,北投區,中央里,2737.0,2606150.0,952.0,516.0,242.0,1084.0,1445.96,151.86,三重區,22379.441956094463,三重區,1792.0,1792.0
COMEBUY_三重文化店,3.6,67,冰品飲料店,新北市三重區文化北路156號,25.0673587,121.4981492,6,99,0,76,17,1,12,2,1,0,三重區,中央里,新北市,三重區,中央里,474.0,317093.0,669.0,420.0,225.0,819.0,1119.14,167.29,三重區,22379.441956094463,三重區,1792.0,1792.0
COMEBUY_三重文化店,3.6,67,冰品飲料店,新北市三重區文化北路156號,25.0673587,121.4981492,6,99,0,76,17,1,12,2,1,0,三重區,中央里,新北市,新店區,中央里,2252.0,3022661.0,1342.0,714.0,289.0,1657.0,1873.68,139.6,三重區,22379.441956094463,三重區,1792.0,1792.0
康青龍 三重車路頭店,3.5,130,冰品飲料店,新北市三重區車路頭街163號,25.0773578,121.4837151,6,53,0,78,28,0,4,2,0,0,三重區,永福里,台北市,士林區,永福里,399.0,1182226.0,2963.0,665.0,265.0,1383.0,17277.98,583.13,三重區,22379.441956094463,三重區,1792.0,1792.0
康青龍 三重車路頭店,3.5,130,冰品飲料店,新北市三重區車路頭街163號,25.0773578,121.4837151,6,53,0,78,28,0,4,2,0,0,三重區,永福里,新北市,三重區,永福里,1472.0,863870.0,587.0,393.0,191.0,722.0,743.75,126.73,三重區,22379.441956094463,三重區,1792.0,1792.0
康青龍 三重車路頭店,3.5,130,冰品飲料店,新北市三重區車路頭街163號,25.0773578,121.4837151,6,53,0,78,28,0,4,2,0,0,三重區,永福里,新北市,永和區,永福里,857.0,810960.0,946.0,548.0,279.0,1071.0,1985.94,209.87,三重區,22379.441956094463,三重區,1792.0,1792.0
巷覓豆花,4.9,133,冰品飲料店,新北市三重區萬壽街59號,25.0695873,121.5006769,3,92,0,65,11,1,7,2,1,0,三重區,介壽里,台北市,松山區,介壽里,1457.0,1989194.0,1365.0,762.0,279.0,1574.0,2176.72,159.44,三重區,22379.441956094463,三重區,1792.0,1792.0
巷覓豆花,4.9,133,冰品飲料店,新北市三重區萬壽街59號,25.0695873,121.5006769,3,92,0,65,11,1,7,2,1,0,三重區,介壽里,新北市,三重區,介壽里,334.0,201753.0,604.0,385.0,173.0,676.0,738.9,122.32,三重區,22379.441956094463,三重區,1792.0,1792.0
巷覓豆花,4.9,133,冰品飲料店,新北市三重區萬壽街59號,25.0695873,121.5006769,3,92,0,65,11,1,7,2,1,0,三重區,介壽里,新北市,板橋區,介壽里,880.0,646016.0,734.0,460.0,222.0,989.0,814.97,111.01,三重區,22379.441956094463,三重區,1792.0,1792.0
巷覓豆花,4.9,133,冰品飲料店,新北市三重區萬壽街59號,25.0695873,121.5006769,3,92,0,65,11,1,7,2,1,0,三重區,介壽里,新北市,三峽區,介壽里,1717.0,866095.0,504.0,361.0,188.0,633.0,741.9,147.08,三重區,22379.441956094463,三重區,1792.0,1792.0
哪次布喝,3.8,49,珍珠奶茶,新北市三重區仁愛街347號,25.0796846,121.4921647,7,49,0,89,25,0,2,1,0,0,三重區,溪美里,新北市,三重區,溪美里,2657.0,1858483.0,699.0,438.0,218.0,892.0,811.46,116.01,三重區,22379.441956094463,三重區,1792.0,1792.0
黑堂甜品專賣店,4.5,234,冰品飲料店,新北市三重區正義南路39號,25.0609112,121.4979651,5,94,0,51,14,1,12,2,1,0,三重區,仁德里,台北市,萬華區,仁德里,1683.0,1721789.0,1023.0,502.0,244.0,1156.0,1804.78,176.41,三重區,22379.441956094463,三重區,1792.0,1792.0
黑堂甜品專賣店,4.5,234,冰品飲料店,新北市三重區正義南路39號,25.0609112,121.4979651,5,94,0,51,14,1,12,2,1,0,三重區,仁德里,新北市,蘆洲區,仁德里,1638.0,1074196.0,656.0,403.0,206.0,781.0,871.53,132.9,三重區,22379.441956094463,三重區,1792.0,1792.0
黑堂甜品專賣店,4.5,234,冰品飲料店,新北市三重區正義南路39號,25.0609112,121.4979651,5,94,0,51,14,1,12,2,1,0,三重區,仁德里,新北市,三重區,仁德里,547.0,319103.0,583.0,383.0,155.0,743.0,698.07,119.66,三重區,22379.441956094463,三重區,1792.0,1792.0
黑堂甜品專賣店,4.5,234,冰品飲料店,新北市三重區正義南路39號,25.0609112,121.4979651,5,94,0,51,14,1,12,2,1,0,三重區,仁德里,新北市,汐止區,仁德里,643.0,394480.0,613.0,406.0,198.0,774.0,716.37,116.77,三重區,22379.441956094463,三重區,1792.0,1792.0
上宇林三重文化北店,4.5,93,冰品飲料店,新北市三重區文化北路14號1樓,25.0637939,121.499278,6,98,0,54,13,1,11,3,1,0,三重區,文化里,台北市,北投區,文化里,1358.0,1239204.0,913.0,569.0,248.0,1186.0,1073.63,117.66,三重區,22379.441956094463,三重區,1792.0,1792.0
上宇林三重文化北店,4.5,93,冰品飲料店,新北市三重區文化北路14號1樓,25.0637939,121.499278,6,98,0,54,13,1,11,3,1,0,三重區,文化里,新北市,三重區,文化里,651.0,425392.0,653.0,371.0,203.0,757.0,969.86,148.42,三重區,22379.441956094463,三重區,1792.0,1792.0
上宇林三重文化北店,4.5,93,冰品飲料店,新北市三重區文化北路14號1樓,25.0637939,121.499278,6,98,0,54,13,1,11,3,1,0,三重區,文化里,新北市,板橋區,文化里,1060.0,987633.0,932.0,482.0,228.0,1069.0,1268.9,136.19,三重區,22379.441956094463,三重區,1792.0,1792.0
上宇林三重文化北店,4.5,93,冰品飲料店,新北市三重區文化北路14號1樓,25.0637939,121.499278,6,98,0,54,13,1,11,3,1,0,三重區,文化里,新北市,淡水區,文化里,538.0,350510.0,652.0,427.0,187.0,847.0,783.5,120.26,三重區,22379.441956094463,三重區,1792.0,1792.0
上宇林三重文化北店,4.5,93,冰品飲料店,新北市三重區文化北路14號1樓,25.0637939,121.499278,6,98,0,54,13,1,11,3,1,0,三重區,文化里,新北市,汐止區,文化里,1657.0,1428700.0,862.0,519.0,238.0,1096.0,1034.83,120.02,三重區,22379.441956094463,三重區,1792.0,1792.0
上宇林三重文化北店,4.5,93,冰品飲料店,新北市三重區文化北路14號1樓,25.0637939,121.499278,6,98,0,54,13,1,11,3,1,0,三重區,文化里,新北市,永和區,文化里,868.0,787345.0,907.0,486.0,231.0,1074.0,1489.19,164.17,三重區,22379.441956094463,三重區,1792.0,1792.0
清源專業青草工廠直營店,4.4,16,冰品飲料店,新北市三重區國隆路6號,25.0636135,121.4934504,8,118,0,85,19,1,10,3,1,0,三重區,國隆里,新北市,三重區,國隆里,815.0,533081.0,654.0,417.0,205.0,843.0,738.22,112.86,三重區,22379.441956094463,三重區,1792.0,1792.0
COMEBUY_三重長壽店,4.0,38,冰品飲料店,新北市三重區長壽街23號-2號,25.0678201,121.4995351,4,98,0,69,15,1,10,2,1,0,三重區,長安里,台北市,北投區,長安里,2034.0,1827853.0,899.0,501.0,212.0,1046.0,1396.83,155.44,三重區,22379.441956094463,三重區,1792.0,1792.0
COMEBUY_三重長壽店,4.0,38,冰品飲料店,新北市三重區長壽街23號-2號,25.0678201,121.4995351,4,98,0,69,15,1,10,2,1,0,三重區,長安里,新北市,蘆洲區,長安里,1367.0,744944.0,545.0,369.0,195.0,684.0,644.79,118.32,三重區,22379.441956094463,三重區,1792.0,1792.0
COMEBUY_三重長壽店,4.0,38,冰品飲料店,新北市三重區長壽街23號-2號,25.0678201,121.4995351,4,98,0,69,15,1,10,2,1,0,三重區,長安里,新北市,三重區,長安里,583.0,341503.0,586.0,371.0,173.0,749.0,690.6,117.9,三重區,22379.441956094463,三重區,1792.0,1792.0
COMEBUY_三重長壽店,4.0,38,冰品飲料店,新北市三重區長壽街23號-2號,25.0678201,121.4995351,4,98,0,69,15,1,10,2,1,0,三重區,長安里,新北市,板橋區,長安里,1387.0,1216564.0,877.0,535.0,253.0,1122.0,1165.83,132.92,三重區,22379.441956094463,三重區,1792.0,1792.0
COMEBUY_三重長壽店,4.0,38,冰品飲料店,新北市三重區長壽街23號-2號,25.0678201,121.4995351,4,98,0,69,15,1,10,2,1,0,三重區,長安里,新北市,汐止區,長安里,504.0,270064.0,536.0,393.0,208.0,655.0,542.84,101.31,三重區,22379.441956094463,三重區,1792.0,1792.0
鶴茶樓- 鶴頂紅茶商店(三重重新店),3.8,306,珍珠奶茶,新北市三重區重新路一段127號,25.0632476,121.5001266,5,94,0,51,12,1,10,3,1,0,三重區,永興里,新北市,三重區,永興里,506.0,397848.0,786.0,491.0,238.0,1030.0,934.3,118.83,三重區,22379.441956094463,三重區,1792.0,1792.0
鶴茶樓- 鶴頂紅茶商店(三重重新店),3.8,306,珍珠奶茶,新北市三重區重新路一段127號,25.0632476,121.5001266,5,94,0,51,12,1,10,3,1,0,三重區,永興里,新北市,金山區,永興里,116.0,57405.0,495.0,350.0,190.0,611.0,492.2,99.46,三重區,22379.441956094463,三重區,1792.0,1792.0
鶴茶樓- 鶴頂紅茶商店(三重重新店),3.8,306,珍珠奶茶,新北市三重區重新路一段127號,25.0632476,121.5001266,5,94,0,51,12,1,10,3,1,0,三重區,永興里,新北市,永和區,永興里,952.0,794126.0,834.0,494.0,239.0,1039.0,1067.9,128.02,三重區,22379.441956094463,三重區,1792.0,1792.0
迷客夏Milksha 新北三重店,3.9,344,冰品飲料店,新北市三重區五華街138號,25.083821,121.491446,4,27,0,71,29,0,3,1,0,0,三重區,富福里,台北市,萬華區,富福里,1428.0,1185081.0,830.0,469.0,207.0,960.0,1262.02,152.07,三重區,22379.441956094463,三重區,1792.0,1792.0
迷客夏Milksha 新北三重店,3.9,344,冰品飲料店,新北市三重區五華街138號,25.083821,121.491446,4,27,0,71,29,0,3,1,0,0,三重區,富福里,新北市,三重區,富福里,561.0,309582.0,552.0,383.0,191.0,678.0,631.97,114.52,三重區,22379.441956094463,三重區,1792.0,1792.0
三和古早味黑糖剉冰 （無固定公休日 ）,4.9,661,冰品飲料店,新北市三重區中央北路46號,25.064886,121.500649,4,102,0,53,13,1,11,2,1,0,三重區,錦安里,台北市,大安區,錦安里,2107.0,3627441.0,1722.0,875.0,349.0,1956.0,3150.52,183.0,三重區,22379.441956094463,三重區,1792.0,1792.0
三和古早味黑糖剉冰 （無固定公休日 ）,4.9,661,冰品飲料店,新北市三重區中央北路46號,25.064886,121.500649,4,102,0,53,13,1,11,2,1,0,三重區,錦安里,新北市,三重區,錦安里,504.0,289300.0,574.0,386.0,198.0,739.0,684.26,119.21,三重區,22379.441956094463,三重區,1792.0,1792.0
龍門西瓜汁｜果汁、飲料、冰沙｜20年老店｜三重飲料推薦,4.6,130,冰品飲料店,新北市三重區龍門路132號1 樓,25.0730362,121.4981652,4,75,0,72,19,0,3,1,0,0,三重區,龍門里,台北市,大安區,龍門里,1532.0,2715569.0,1773.0,897.0,359.0,2028.0,3403.47,192.01,三重區,22379.441956094463,三重區,1792.0,1792.0
龍門西瓜汁｜果汁、飲料、冰沙｜20年老店｜三重飲料推薦,4.6,130,冰品飲料店,新北市三重區龍門路132號1 樓,25.0730362,121.4981652,4,75,0,72,19,0,3,1,0,0,三重區,龍門里,新北市,三重區,龍門里,518.0,327494.0,632.0,399.0,187.0,776.0,768.78,121.6,三重區,22379.441956094463,三重區,1792.0,1792.0
龍門西瓜汁｜果汁、飲料、冰沙｜20年老店｜三重飲料推薦,4.6,130,冰品飲料店,新北市三重區龍門路132號1 樓,25.0730362,121.4981652,4,75,0,72,19,0,3,1,0,0,三重區,龍門里,新北市,貢寮區,龍門里,125.0,64343.0,515.0,370.0,188.0,655.0,524.66,101.93,三重區,22379.441956094463,三重區,1792.0,1792.0
幸福多芋點,4.2,5,無酒精飲料店,新北市三重區三民街309號,25.0690527,121.4781321,7,35,0,57,22,0,13,0,0,0,三重區,田中里,新北市,三重區,田中里,1899.0,1273685.0,671.0,439.0,217.0,848.0,761.14,113.48,三重區,22379.441956094463,三重區,1792.0,1792.0
七盞茶 三重五華店,4.8,280,冰品飲料店,新北市三重區五華街91號,25.0835402,121.4919316,4,27,0,70,27,0,2,1,0,0,三重區,富貴里,新北市,三重區,富貴里,2227.0,2517504.0,1130.0,585.0,276.0,1316.0,1587.87,140.46,三重區,22379.441956094463,三重區,1792.0,1792.0
七盞茶 三重五華店,4.8,280,冰品飲料店,新北市三重區五華街91號,25.0835402,121.4919316,4,27,0,70,27,0,2,1,0,0,三重區,富貴里,新北市,板橋區,富貴里,777.0,800197.0,1030.0,494.0,245.0,1069.0,2741.88,266.24,三重區,22379.441956094463,三重區,1792.0,1792.0
漿樣子濃?豆乳-三重力行店,4.5,84,冰品飲料店,新北市三重區力行路二段71-1號,25.0751818,121.4824535,7,57,0,77,24,0,4,2,0,0,三重區,永福里,台北市,士林區,永福里,399.0,1182226.0,2963.0,665.0,265.0,1383.0,17277.98,583.13,三重區,22379.441956094463,三重區,1792.0,1792.0
漿樣子濃?豆乳-三重力行店,4.5,84,冰品飲料店,新北市三重區力行路二段71-1號,25.0751818,121.4824535,7,57,0,77,24,0,4,2,0,0,三重區,永福里,新北市,三重區,永福里,1472.0,863870.0,587.0,393.0,191.0,722.0,743.75,126.73,三重區,22379.441956094463,三重區,1792.0,1792.0
漿樣子濃?豆乳-三重力行店,4.5,84,冰品飲料店,新北市三重區力行路二段71-1號,25.0751818,121.4824535,7,57,0,77,24,0,4,2,0,0,三重區,永福里,新北市,永和區,永福里,857.0,810960.0,946.0,548.0,279.0,1071.0,1985.94,209.87,三重區,22379.441956094463,三重區,1792.0,1792.0
五桐號ＷooTea新北三重五華店,4.2,22,冰品飲料店,新北市三重區五華街144號,25.0839265,121.4913188,4,27,0,71,30,0,3,1,0,0,三重區,富福里,台北市,萬華區,富福里,1428.0,1185081.0,830.0,469.0,207.0,960.0,1262.02,152.07,三重區,22379.441956094463,三重區,1792.0,1792.0
五桐號ＷooTea新北三重五華店,4.2,22,冰品飲料店,新北市三重區五華街144號,25.0839265,121.4913188,4,27,0,71,30,0,3,1,0,0,三重區,富福里,新北市,三重區,富福里,561.0,309582.0,552.0,383.0,191.0,678.0,631.97,114.52,三重區,22379.441956094463,三重區,1792.0,1792.0
清心福全三重三和店-珍珠奶茶手搖飲料專賣店,4.0,190,珍珠奶茶,新北市三重區三和路四段197號,25.0793421,121.4822075,6,63,0,81,29,0,3,2,0,0,三重區,慈愛里,新北市,三重區,慈愛里,897.0,490598.0,547.0,363.0,189.0,677.0,660.46,120.76,三重區,22379.441956094463,三重區,1792.0,1792.0
一沐日-三重三和店,3.8,71,冰品飲料店,新北市三重區三和路二段81號,25.068257,121.499969,3,97,0,67,13,1,10,2,1,0,三重區,長泰里,新北市,三重區,長泰里,595.0,335153.0,563.0,385.0,171.0,680.0,673.77,119.62,三重區,22379.441956094463,三重區,1792.0,1792.0
日春木瓜牛奶-龍門店-三重木瓜牛奶|水果飲品|果汁飲品|現打果汁|平價果汁|新鮮果汁,4.4,57,冰品飲料店,新北市三重區龍門路166號1樓,25.0733067,121.4988741,4,69,0,69,18,0,3,1,0,0,三重區,龍門里,台北市,大安區,龍門里,1532.0,2715569.0,1773.0,897.0,359.0,2028.0,3403.47,192.01,三重區,22379.441956094463,三重區,1792.0,1792.0
日春木瓜牛奶-龍門店-三重木瓜牛奶|水果飲品|果汁飲品|現打果汁|平價果汁|新鮮果汁,4.4,57,冰品飲料店,新北市三重區龍門路166號1樓,25.0733067,121.4988741,4,69,0,69,18,0,3,1,0,0,三重區,龍門里,新北市,三重區,龍門里,518.0,327494.0,632.0,399.0,187.0,776.0,768.78,121.6,三重區,22379.441956094463,三重區,1792.0,1792.0
日春木瓜牛奶-龍門店-三重木瓜牛奶|水果飲品|果汁飲品|現打果汁|平價果汁|新鮮果汁,4.4,57,冰品飲料店,新北市三重區龍門路166號1樓,25.0733067,121.4988741,4,69,0,69,18,0,3,1,0,0,三重區,龍門里,新北市,貢寮區,龍門里,125.0,64343.0,515.0,370.0,188.0,655.0,524.66,101.93,三重區,22379.441956094463,三重區,1792.0,1792.0
茶詠春-三重光復店,4.7,301,冰品飲料店,新北市三重區光復路一段68巷58號,25.0491698,121.4697967,4,31,0,51,12,0,3,2,0,1,三重區,中興里,台北市,信義區,中興里,1256.0,1607354.0,1280.0,674.0,282.0,1379.0,2324.06,181.6,三重區,22379.441956094463,三重區,1792.0,1792.0
茶詠春-三重光復店,4.7,301,冰品飲料店,新北市三重區光復路一段68巷58號,25.0491698,121.4697967,4,31,0,51,12,0,3,2,0,1,三重區,中興里,新北市,三重區,中興里,1406.0,1016753.0,723.0,431.0,204.0,844.0,957.94,132.47,三重區,22379.441956094463,三重區,1792.0,1792.0
